[{"name":"Tokyo","lon":139.75,"lat":35.69,"pop":35676000},{"name":"New York","lon":-74,"lat":40.72,"pop":19040000},{"name":"Mexico City","lon":-99.13,"lat":19.44,"pop":19028000},{"name":"Mumbai","lon":72.88,"lat":19.07,"pop":18978000},{"name":"São Paulo","lon":-46.63,"lat":-23.56,"pop":18845000},{"name":"Delhi","lon":77.23,"lat":28.67,"pop":15926000},{"name":"Shanghai","lon":121.43,"lat":31.22,"pop":14987000},{"name":"Kolkata","lon":88.37,"lat":22.57,"pop":14787000},{"name":"Dhaka","lon":90.41,"lat":23.73,"pop":12797394},{"name":"Buenos Aires","lon":-58.43,"lat":-34.61,"pop":12795000},{"name":"Los Angeles","lon":-118.23,"lat":34.05,"pop":12500000},{"name":"Karachi","lon":66.99,"lat":24.87,"pop":12130000},{"name":"Cairo","lon":31.25,"lat":30.05,"pop":11893000},{"name":"Rio de Janeiro","lon":-43.21,"lat":-22.91,"pop":11748000},{"name":"Ōsaka","lon":135.5,"lat":34.69,"pop":11294000},{"name":"Beijing","lon":116.39,"lat":39.9,"pop":11106000},{"name":"Manila","lon":120.98,"lat":14.61,"pop":11100000},{"name":"Moscow","lon":37.61,"lat":55.75,"pop":10452000},{"name":"Istanbul","lon":28.97,"lat":41.02,"pop":10061000},{"name":"Paris","lon":2.35,"lat":48.86,"pop":9904000},{"name":"Seoul","lon":127,"lat":37.57,"pop":9796000},{"name":"Lagos","lon":3.39,"lat":6.45,"pop":9466000},{"name":"Jakarta","lon":106.83,"lat":-6.17,"pop":9125000},{"name":"Chicago","lon":-87.64,"lat":41.85,"pop":8990000},{"name":"Guangzhou","lon":113.26,"lat":23.12,"pop":8829000},{"name":"London","lon":-0.12,"lat":51.5,"pop":8567000},{"name":"Lima","lon":-77.05,"lat":-12.05,"pop":8012000},{"name":"Tehran","lon":51.42,"lat":35.67,"pop":7873000},{"name":"Kinshasa","lon":15.31,"lat":-4.33,"pop":7843000},{"name":"Bogota","lon":-74.09,"lat":4.6,"pop":7772000},{"name":"Shenzhen","lon":114.06,"lat":22.55,"pop":7581000},{"name":"Wuhan","lon":114.27,"lat":30.58,"pop":7243000},{"name":"Hong Kong","lon":114.18,"lat":22.31,"pop":7206000},{"name":"Tianjin","lon":117.2,"lat":39.08,"pop":7180000},{"name":"Chennai","lon":80.28,"lat":13.09,"pop":7163000},{"name":"Taipei","lon":121.57,"lat":25.04,"pop":6900273},{"name":"Bengaluru","lon":77.56,"lat":12.97,"pop":6787000},{"name":"Bangkok","lon":100.51,"lat":13.75,"pop":6704000},{"name":"Lahore","lon":74.35,"lat":31.56,"pop":6577000},{"name":"Chongqing","lon":106.59,"lat":29.57,"pop":6461000},{"name":"Hyderabad","lon":78.48,"lat":17.4,"pop":6376000},{"name":"Amaravati","lon":80.52,"lat":16.53,"pop":5800000},{"name":"Santiago","lon":-70.65,"lat":-33.44,"pop":5720000},{"name":"Miami","lon":-80.23,"lat":25.79,"pop":5585000},{"name":"Belo Horizonte","lon":-43.92,"lat":-19.91,"pop":5575000},{"name":"Madrid","lon":-3.69,"lat":40.4,"pop":5567000},{"name":"Philadelphia","lon":-75.18,"lat":39.95,"pop":5492000},{"name":"Ahmedabad","lon":72.58,"lat":23.03,"pop":5375000},{"name":"Ho Chi Minh City","lon":106.7,"lat":10.76,"pop":5314000},{"name":"Toronto","lon":-79.39,"lat":43.66,"pop":5213000},{"name":"Singapore","lon":103.85,"lat":1.29,"pop":5183700},{"name":"Luanda","lon":13.23,"lat":-8.84,"pop":5172900},{"name":"Baghdad","lon":44.39,"lat":33.34,"pop":5054000},{"name":"Barcelona","lon":2.18,"lat":41.39,"pop":4920000},{"name":"Haora","lon":88.32,"lat":22.58,"pop":4841638},{"name":"Dallas","lon":-96.79,"lat":32.77,"pop":4798000},{"name":"Shenyeng","lon":123.45,"lat":41.81,"pop":4787000},{"name":"Khartoum","lon":32.53,"lat":15.59,"pop":4754000},{"name":"Pune","lon":73.85,"lat":18.52,"pop":4672000},{"name":"Sydney","lon":151.21,"lat":-33.87,"pop":4630000},{"name":"St.  Petersburg","lon":30.31,"lat":59.94,"pop":4553000},{"name":"Chattogram","lon":91.8,"lat":22.33,"pop":4529000},{"name":"Dongguan","lon":113.75,"lat":23.02,"pop":4528000},{"name":"Atlanta","lon":-84.37,"lat":33.74,"pop":4506000},{"name":"Boston","lon":-71.07,"lat":42.33,"pop":4467000},{"name":"Riyadh","lon":46.72,"lat":24.63,"pop":4465000},{"name":"Houston","lon":-95.35,"lat":29.74,"pop":4459000},{"name":"Hanoi","lon":105.85,"lat":21.04,"pop":4378000},{"name":"Washington,  D.C.","lon":-77.01,"lat":38.9,"pop":4338000},{"name":"Guadalajara","lon":-103.33,"lat":20.67,"pop":4198000},{"name":"Melbourne","lon":144.97,"lat":-37.82,"pop":4170000},{"name":"Alexandria","lon":29.95,"lat":31.2,"pop":4165000},{"name":"Chengdu","lon":104.07,"lat":30.67,"pop":4123000},{"name":"Detroit","lon":-83.05,"lat":42.33,"pop":4101000},{"name":"Yangon","lon":96.16,"lat":16.79,"pop":4088000},{"name":"Xian","lon":108.89,"lat":34.28,"pop":4009000},{"name":"Porto Alegre","lon":-51.2,"lat":-30.05,"pop":3917000},{"name":"New Taipei","lon":121.47,"lat":25.01,"pop":3893740},{"name":"Surat","lon":72.84,"lat":21.2,"pop":3842000},{"name":"Hechi","lon":108.08,"lat":24.7,"pop":3830000},{"name":"Abidjan","lon":-4.02,"lat":5.32,"pop":3802000},{"name":"Brasília","lon":-47.92,"lat":-15.78,"pop":3716996},{"name":"Ankara","lon":32.86,"lat":39.93,"pop":3716000},{"name":"Monterrey","lon":-100.33,"lat":25.67,"pop":3712000},{"name":"Yokohama","lon":139.6,"lat":35.43,"pop":3697894},{"name":"Nanjing","lon":118.78,"lat":32.05,"pop":3679000},{"name":"Montréal","lon":-73.59,"lat":45.5,"pop":3678000},{"name":"Guiyang","lon":106.72,"lat":26.58,"pop":3662000},{"name":"Recife","lon":-34.91,"lat":-8.06,"pop":3651000},{"name":"Harbin","lon":126.65,"lat":45.75,"pop":3621000},{"name":"Fortaleza","lon":-38.58,"lat":-3.75,"pop":3602319},{"name":"Ürümqi","lon":87.57,"lat":43.81,"pop":3575000},{"name":"Phoenix","lon":-112.07,"lat":33.45,"pop":3551000},{"name":"Zhangzhou","lon":117.67,"lat":24.52,"pop":3531147},{"name":"Salvador","lon":-38.48,"lat":-12.97,"pop":3484000},{"name":"Busan","lon":129.01,"lat":35.1,"pop":3480000},{"name":"San Francisco","lon":-122.4,"lat":37.78,"pop":3450000},{"name":"Johannesburg","lon":28.03,"lat":-26.17,"pop":3435000},{"name":"Berlin","lon":13.4,"lat":52.52,"pop":3406000},{"name":"Algiers","lon":3.05,"lat":36.77,"pop":3354000},{"name":"Rome","lon":12.48,"lat":41.9,"pop":3339000},{"name":"Pyongyang","lon":125.75,"lat":39.02,"pop":3300000},{"name":"Medellín","lon":-75.58,"lat":6.28,"pop":3297000},{"name":"Kabul","lon":69.18,"lat":34.52,"pop":3277000},{"name":"Athens","lon":23.73,"lat":37.99,"pop":3242000},{"name":"Nagoya","lon":136.91,"lat":35.16,"pop":3230000},{"name":"Cape Town","lon":18.43,"lat":-33.92,"pop":3215000},{"name":"Changchun","lon":125.34,"lat":43.87,"pop":3183000},{"name":"Casablanca","lon":-7.62,"lat":33.6,"pop":3181000},{"name":"Dalian","lon":121.63,"lat":38.92,"pop":3167000},{"name":"Kanpur","lon":80.32,"lat":26.46,"pop":3162000},{"name":"Kano","lon":8.52,"lat":12,"pop":3140000},{"name":"Tel Aviv","lon":34.77,"lat":32.08,"pop":3112000},{"name":"Addis Ababa","lon":38.7,"lat":9.04,"pop":3100000},{"name":"Curitiba","lon":-49.32,"lat":-25.42,"pop":3084000},{"name":"Seattle","lon":-122.32,"lat":47.6,"pop":3074000},{"name":"Zibo","lon":118,"lat":36.82,"pop":3061000},{"name":"Jeddah","lon":39.22,"lat":21.52,"pop":3012000},{"name":"Irvine","lon":-117.83,"lat":33.68,"pop":3010232},{"name":"Nairobi","lon":36.81,"lat":-1.28,"pop":3010000},{"name":"Hangzhou","lon":120.17,"lat":30.25,"pop":3007000},{"name":"Benoni","lon":28.33,"lat":-26.15,"pop":2986000},{"name":"Caracas","lon":-66.92,"lat":10.5,"pop":2985000},{"name":"Milan","lon":9.2,"lat":45.47,"pop":2945000},{"name":"Stuttgart","lon":9.2,"lat":48.78,"pop":2944700},{"name":"Kunming","lon":102.7,"lat":25.04,"pop":2931000},{"name":"Dar es Salaam","lon":39.27,"lat":-6.8,"pop":2930000},{"name":"Jaipur","lon":75.81,"lat":26.92,"pop":2917000},{"name":"San Diego","lon":-117.15,"lat":32.72,"pop":2916000},{"name":"Taiyuan","lon":112.54,"lat":37.88,"pop":2913000},{"name":"Frankfurt","lon":8.68,"lat":50.1,"pop":2895000},{"name":"Qingdao","lon":120.33,"lat":36.09,"pop":2866000},{"name":"Surabaya","lon":112.75,"lat":-7.25,"pop":2845000},{"name":"Lisbon","lon":-9.15,"lat":38.72,"pop":2812000},{"name":"Jinan","lon":116.99,"lat":36.68,"pop":2798000},{"name":"Fukuoka","lon":130.41,"lat":33.6,"pop":2792000},{"name":"Campinas","lon":-47.06,"lat":-22.91,"pop":2791000},{"name":"Kaohsiung","lon":120.27,"lat":22.63,"pop":2769072},{"name":"Quezon City","lon":121.03,"lat":14.65,"pop":2761720},{"name":"Katowice","lon":19.02,"lat":50.26,"pop":2746000},{"name":"Aleppo","lon":37.17,"lat":36.23,"pop":2738000},{"name":"Durban","lon":31.01,"lat":-29.86,"pop":2729000},{"name":"Kyiv","lon":30.51,"lat":50.44,"pop":2709000},{"name":"Lucknow","lon":80.91,"lat":26.86,"pop":2695000},{"name":"Giza","lon":31.19,"lat":30.01,"pop":2681863},{"name":"Zhengzhou","lon":113.66,"lat":34.76,"pop":2636000},{"name":"Taichung","lon":120.68,"lat":24.15,"pop":2629323},{"name":"Ibadan","lon":3.93,"lat":7.38,"pop":2628000},{"name":"Faisalabad","lon":73.11,"lat":31.41,"pop":2617000},{"name":"Minneapolis","lon":-93.25,"lat":44.98,"pop":2616000},{"name":"Fuzhou","lon":119.3,"lat":26.08,"pop":2606000},{"name":"Changsha","lon":112.97,"lat":28.2,"pop":2604000},{"name":"Dakar","lon":-17.48,"lat":14.72,"pop":2604000},{"name":"İzmir","lon":27.15,"lat":38.44,"pop":2587000},{"name":"Xiangtan","lon":112.9,"lat":27.85,"pop":2586948},{"name":"Lanzhou","lon":103.79,"lat":36.06,"pop":2561000},{"name":"Incheon","lon":126.64,"lat":37.48,"pop":2550000},{"name":"Sapporo","lon":141.34,"lat":43.08,"pop":2544000},{"name":"Xiamen","lon":118.08,"lat":24.45,"pop":2519000},{"name":"Guayaquil","lon":-79.92,"lat":-2.22,"pop":2514000},{"name":"George Town","lon":100.33,"lat":5.41,"pop":2500000},{"name":"San Juan","lon":-66.13,"lat":18.44,"pop":2478905},{"name":"Mashhad","lon":59.57,"lat":36.27,"pop":2469000},{"name":"Damascus","lon":36.3,"lat":33.5,"pop":2466000},{"name":"Daegu","lon":128.61,"lat":35.87,"pop":2460000},{"name":"Nagpur","lon":79.09,"lat":21.17,"pop":2454000},{"name":"Jinxi","lon":120.83,"lat":40.75,"pop":2426000},{"name":"Shijiazhuang","lon":114.48,"lat":38.05,"pop":2417000},{"name":"Tunis","lon":10.18,"lat":36.8,"pop":2412500},{"name":"Vienna","lon":16.36,"lat":48.2,"pop":2400000},{"name":"Jilin","lon":126.55,"lat":43.85,"pop":2396000},{"name":"Omdurman","lon":32.48,"lat":15.62,"pop":2395159},{"name":"Bandung","lon":107.57,"lat":-6.95,"pop":2394000},{"name":"Bekasi","lon":106.97,"lat":-6.22,"pop":2378211},{"name":"Mannheim","lon":8.47,"lat":49.5,"pop":2362000},{"name":"Wenzhou","lon":120.65,"lat":28.02,"pop":2350000},{"name":"Nanchang","lon":115.88,"lat":28.68,"pop":2350000},{"name":"Tampa","lon":-82.46,"lat":27.95,"pop":2314000},{"name":"Vancouver","lon":-123.12,"lat":49.28,"pop":2313328},{"name":"Denver","lon":-104.99,"lat":39.74,"pop":2313000},{"name":"Birmingham","lon":-1.92,"lat":52.48,"pop":2285000},{"name":"Baltimore","lon":-76.61,"lat":39.28,"pop":2255000},{"name":"Cali","lon":-76.5,"lat":3.4,"pop":2254000},{"name":"Sendai","lon":140.87,"lat":38.27,"pop":2250000},{"name":"Naples","lon":14.24,"lat":40.84,"pop":2250000},{"name":"Manchester","lon":-2.25,"lat":53.48,"pop":2230000},{"name":"St. Louis","lon":-90.24,"lat":38.64,"pop":2199000},{"name":"Puebla","lon":-98.2,"lat":19.03,"pop":2195000},{"name":"Tripoli","lon":13.18,"lat":32.89,"pop":2189000},{"name":"Tashkent","lon":69.27,"lat":41.3,"pop":2184000},{"name":"Nanchong","lon":106.13,"lat":30.78,"pop":2174000},{"name":"Havana","lon":-82.37,"lat":23.13,"pop":2174000},{"name":"Nanning","lon":108.32,"lat":22.82,"pop":2167000},{"name":"Belém","lon":-48.48,"lat":-1.45,"pop":2167000},{"name":"Patna","lon":85.13,"lat":25.63,"pop":2158000},{"name":"Santo Domingo","lon":-69.93,"lat":18.47,"pop":2154000},{"name":"Zaozhuang","lon":117.57,"lat":34.88,"pop":2145000},{"name":"Baku","lon":49.86,"lat":40.4,"pop":2122300},{"name":"Accra","lon":-0.22,"lat":5.55,"pop":2121000},{"name":"Yantai","lon":121.4,"lat":37.53,"pop":2116000},{"name":"Medan","lon":98.65,"lat":3.58,"pop":2115000},{"name":"Santa Cruz","lon":-63.23,"lat":-17.75,"pop":2102998},{"name":"Xuzhou","lon":117.18,"lat":34.28,"pop":2091000},{"name":"Linyi","lon":118.33,"lat":35.08,"pop":2082000},{"name":"Maracaibo","lon":-71.66,"lat":10.73,"pop":2072000},{"name":"Kuwait City","lon":47.98,"lat":29.37,"pop":2063000},{"name":"Dammam","lon":50.1,"lat":26.43,"pop":2054710},{"name":"Haikou","lon":110.32,"lat":20.05,"pop":2046189},{"name":"Hiroshima","lon":132.44,"lat":34.39,"pop":2045000},{"name":"Fort Lauderdale","lon":-80.14,"lat":26.14,"pop":2042042},{"name":"Long Beach","lon":-118.2,"lat":33.78,"pop":2036134},{"name":"Baotou","lon":109.82,"lat":40.65,"pop":2036000},{"name":"Hefei","lon":117.28,"lat":31.85,"pop":2035000},{"name":"Indore","lon":75.86,"lat":22.72,"pop":2026000},{"name":"Goiânia","lon":-49.3,"lat":-16.72,"pop":2022000},{"name":"Sanaa","lon":44.2,"lat":15.36,"pop":2008000},{"name":"Port-au-Prince","lon":-72.34,"lat":18.54,"pop":1998000},{"name":"Haiphong","lon":106.68,"lat":20.83,"pop":1969000},{"name":"Suzhou","lon":116.98,"lat":33.64,"pop":1964000},{"name":"Nanyang","lon":112.53,"lat":33,"pop":1944000},{"name":"Bucharest","lon":26.1,"lat":44.44,"pop":1942000},{"name":"Ningbo","lon":121.55,"lat":29.88,"pop":1923000},{"name":"Douala","lon":9.71,"lat":4.06,"pop":1906000},{"name":"Cleveland","lon":-81.7,"lat":41.47,"pop":1890000},{"name":"Tangshan","lon":118.19,"lat":39.63,"pop":1879000},{"name":"Tainan","lon":120.2,"lat":23,"pop":1876312},{"name":"Portland","lon":-122.68,"lat":45.52,"pop":1875000},{"name":"Datong","lon":113.3,"lat":40.08,"pop":1873000},{"name":"Asunción","lon":-57.63,"lat":-25.29,"pop":1870000},{"name":"Saidu","lon":72.35,"lat":34.75,"pop":1860310},{"name":"Brisbane","lon":153.03,"lat":-27.45,"pop":1860000},{"name":"Rawalpindi","lon":73.07,"lat":33.59,"pop":1858000},{"name":"Beirut","lon":35.51,"lat":33.87,"pop":1846000},{"name":"Pittsburgh","lon":-80,"lat":40.43,"pop":1838000},{"name":"Las Vegas","lon":-115.15,"lat":36.16,"pop":1823000},{"name":"Kyoto","lon":135.75,"lat":35.03,"pop":1805000},{"name":"Minsk","lon":27.56,"lat":53.9,"pop":1805000},{"name":"Barranquilla","lon":-74.8,"lat":10.96,"pop":1798000},{"name":"Shuyang","lon":118.77,"lat":34.13,"pop":1770000},{"name":"Valencia","lon":-67.98,"lat":10.23,"pop":1770000},{"name":"Hamburg","lon":10,"lat":53.55,"pop":1757000},{"name":"Vadodara","lon":73.18,"lat":22.31,"pop":1756000},{"name":"Shangqiu","lon":115.65,"lat":34.41,"pop":1753000},{"name":"Manaus","lon":-60,"lat":-3.1,"pop":1753000},{"name":"Wuxi","lon":120.3,"lat":31.58,"pop":1749000},{"name":"Palembang","lon":104.75,"lat":-2.98,"pop":1749000},{"name":"San Bernardino","lon":-117.3,"lat":34.12,"pop":1745000},{"name":"Brussels","lon":4.33,"lat":50.84,"pop":1743000},{"name":"Essen","lon":7.02,"lat":51.45,"pop":1742135},{"name":"Bhopal","lon":77.41,"lat":23.25,"pop":1727000},{"name":"Hohhot","lon":111.66,"lat":40.82,"pop":1726000},{"name":"Luoyang","lon":112.44,"lat":34.64,"pop":1715000},{"name":"Santos","lon":-46.33,"lat":-23.96,"pop":1709000},{"name":"Jianmen","lon":113.16,"lat":30.65,"pop":1708000},{"name":"Warsaw","lon":21.01,"lat":52.23,"pop":1707000},{"name":"Rabat","lon":-6.84,"lat":34.03,"pop":1705000},{"name":"Vitória","lon":-40.35,"lat":-20.33,"pop":1704000},{"name":"Quito","lon":-78.5,"lat":-0.21,"pop":1701000},{"name":"Antananarivo","lon":47.51,"lat":-18.91,"pop":1697000},{"name":"Coimbatore","lon":76.95,"lat":11,"pop":1696000},{"name":"Daqing","lon":125,"lat":46.58,"pop":1693000},{"name":"Luan","lon":116.48,"lat":31.75,"pop":1690000},{"name":"Wanzhou","lon":108.4,"lat":30.82,"pop":1680000},{"name":"Budapest","lon":19.08,"lat":47.5,"pop":1679000},{"name":"San Jose","lon":-121.89,"lat":37.33,"pop":1668000},{"name":"Turin","lon":7.67,"lat":45.07,"pop":1652000},{"name":"Suzhou","lon":120.62,"lat":31.3,"pop":1650000},{"name":"Ludhiana","lon":75.87,"lat":30.93,"pop":1649000},{"name":"Kumasi","lon":-1.63,"lat":6.69,"pop":1646000},{"name":"Qiqihar","lon":123.99,"lat":47.35,"pop":1641000},{"name":"Anshan","lon":122.94,"lat":41.12,"pop":1639000},{"name":"Cincinnati","lon":-84.46,"lat":39.16,"pop":1636000},{"name":"Zhongli","lon":121.22,"lat":24.97,"pop":1632616},{"name":"Handan","lon":114.48,"lat":36.58,"pop":1631000},{"name":"Taian","lon":117.12,"lat":36.2,"pop":1629000},{"name":"Isfahan","lon":51.7,"lat":32.7,"pop":1628000},{"name":"Yaoundé","lon":11.51,"lat":3.87,"pop":1611000},{"name":"Sacramento","lon":-121.47,"lat":38.58,"pop":1604000},{"name":"Shantou","lon":116.67,"lat":23.37,"pop":1601000},{"name":"Agra","lon":78.01,"lat":27.17,"pop":1592000},{"name":"Zhanjiang","lon":110.38,"lat":21.2,"pop":1590000},{"name":"La Paz","lon":-68.15,"lat":-16.5,"pop":1590000},{"name":"Kalyan","lon":73.16,"lat":19.25,"pop":1576614},{"name":"Abuja","lon":7.49,"lat":9.05,"pop":1576000},{"name":"Harare","lon":31.04,"lat":-17.82,"pop":1572000},{"name":"Xiantao","lon":113.44,"lat":30.37,"pop":1556000},{"name":"Weifang","lon":119.16,"lat":36.7,"pop":1553000},{"name":"Khulna","lon":89.56,"lat":22.84,"pop":1553000},{"name":"Tijuana","lon":-117.08,"lat":32.5,"pop":1553000},{"name":"Santiago","lon":-70.67,"lat":19.5,"pop":1550753},{"name":"Xinyang","lon":114.07,"lat":32.13,"pop":1541000},{"name":"Luzhou","lon":105.38,"lat":28.88,"pop":1537000},{"name":"Perth","lon":115.84,"lat":-31.95,"pop":1532000},{"name":"Toluca","lon":-99.65,"lat":19.29,"pop":1531000},{"name":"Leeds","lon":-1.55,"lat":53.79,"pop":1529000},{"name":"Vishakhapatnam","lon":83.22,"lat":17.68,"pop":1529000},{"name":"Kōbe","lon":135.17,"lat":34.68,"pop":1528478},{"name":"Multan","lon":71.45,"lat":30.2,"pop":1522000},{"name":"Kochi","lon":76.22,"lat":10.02,"pop":1519000},{"name":"Gujranwala","lon":74.18,"lat":32.16,"pop":1513000},{"name":"Montevideo","lon":-56.19,"lat":-34.91,"pop":1513000},{"name":"Oakland","lon":-122.28,"lat":37.8,"pop":1510271},{"name":"Niterói","lon":-43.11,"lat":-22.88,"pop":1500513},{"name":"Ganzhou","lon":114.95,"lat":25.92,"pop":1500000},{"name":"Florence","lon":11.25,"lat":43.78,"pop":1500000},{"name":"Liuzhou","lon":109.41,"lat":24.32,"pop":1497000},{"name":"Bamako","lon":-8,"lat":12.65,"pop":1494000},{"name":"Conakry","lon":-13.68,"lat":9.53,"pop":1494000},{"name":"Bursa","lon":29.07,"lat":40.2,"pop":1492000},{"name":"Virginia Beach","lon":-75.98,"lat":36.86,"pop":1491000},{"name":"León","lon":-101.7,"lat":21.15,"pop":1488000},{"name":"Nasik","lon":73.78,"lat":20,"pop":1473000},{"name":"San Antonio","lon":-98.49,"lat":29.42,"pop":1473000},{"name":"Fushun","lon":123.87,"lat":41.87,"pop":1470000},{"name":"Changde","lon":111.68,"lat":29.03,"pop":1469000},{"name":"Kansas City","lon":-94.61,"lat":39.11,"pop":1469000},{"name":"Daejeon","lon":127.42,"lat":36.34,"pop":1468000},{"name":"Neijiang","lon":105.05,"lat":29.58,"pop":1466000},{"name":"Phnom Penh","lon":104.91,"lat":11.55,"pop":1466000},{"name":"Quanzhou","lon":118.58,"lat":24.9,"pop":1463000},{"name":"Kharkiv","lon":36.25,"lat":50,"pop":1461000},{"name":"Hyderabad","lon":68.37,"lat":25.38,"pop":1459000},{"name":"Lomé","lon":1.22,"lat":6.13,"pop":1452000},{"name":"Córdoba","lon":-64.18,"lat":-31.4,"pop":1452000},{"name":"Huainan","lon":116.98,"lat":32.63,"pop":1451000},{"name":"Doha","lon":51.53,"lat":25.29,"pop":1450000},{"name":"Kuala Lumpur","lon":101.69,"lat":3.14,"pop":1448000},{"name":"Maputo","lon":32.59,"lat":-25.95,"pop":1446000},{"name":"Kaduna","lon":7.44,"lat":10.52,"pop":1442000},{"name":"Ft.  Worth","lon":-97.34,"lat":32.74,"pop":1440454},{"name":"Gwangju","lon":126.91,"lat":35.17,"pop":1440000},{"name":"Kawasaki","lon":139.71,"lat":35.53,"pop":1437266},{"name":"Indianapolis","lon":-86.17,"lat":39.75,"pop":1436000},{"name":"San Salvador","lon":-89.22,"lat":13.7,"pop":1433000},{"name":"Suining","lon":105.53,"lat":30.54,"pop":1425000},{"name":"Karaj","lon":50.97,"lat":35.8,"pop":1423000},{"name":"Lyon","lon":4.83,"lat":45.77,"pop":1423000},{"name":"Kampala","lon":32.58,"lat":0.32,"pop":1420000},{"name":"Tabriz","lon":46.3,"lat":38.09,"pop":1413000},{"name":"The Hague","lon":4.27,"lat":52.08,"pop":1406000},{"name":"Davao","lon":125.63,"lat":7.11,"pop":1402000},{"name":"Marseille","lon":5.37,"lat":43.29,"pop":1400000},{"name":"Meerut","lon":77.7,"lat":29,"pop":1398000},{"name":"Mianyang","lon":104.69,"lat":31.46,"pop":1396000},{"name":"Semarang","lon":110.42,"lat":-6.96,"pop":1396000},{"name":"Faridabad","lon":77.31,"lat":28.44,"pop":1394000},{"name":"Novosibirsk","lon":82.96,"lat":55.03,"pop":1389000},{"name":"Milwaukee","lon":-87.92,"lat":43.03,"pop":1388000},{"name":"Makkah","lon":39.82,"lat":21.43,"pop":1385000},{"name":"Dubai","lon":55.29,"lat":25.21,"pop":1379000},{"name":"Auckland","lon":174.76,"lat":-36.85,"pop":1377200},{"name":"Maanshan","lon":118.49,"lat":31.67,"pop":1366302},{"name":"Brazzaville","lon":15.28,"lat":-4.26,"pop":1355000},{"name":"Yiyang","lon":112.33,"lat":28.6,"pop":1352000},{"name":"Lubumbashi","lon":27.48,"lat":-11.68,"pop":1352000},{"name":"Varanasi","lon":83,"lat":25.33,"pop":1352000},{"name":"Orlando","lon":-81.38,"lat":28.51,"pop":1350000},{"name":"Ciudad Juárez","lon":-106.49,"lat":31.69,"pop":1343000},{"name":"Ghaziabad","lon":77.41,"lat":28.66,"pop":1341000},{"name":"Heze","lon":115.45,"lat":35.23,"pop":1338000},{"name":"Pretoria","lon":28.23,"lat":-25.7,"pop":1338000},{"name":"Porto","lon":-8.62,"lat":41.15,"pop":1337000},{"name":"Lusaka","lon":28.28,"lat":-15.41,"pop":1328000},{"name":"Asansol","lon":86.98,"lat":23.69,"pop":1328000},{"name":"Changzhou","lon":119.97,"lat":31.78,"pop":1327000},{"name":"Mosul","lon":43.14,"lat":36.35,"pop":1316000},{"name":"Yekaterinburg","lon":60.6,"lat":56.85,"pop":1313000},{"name":"Peshawar","lon":71.53,"lat":34.01,"pop":1303000},{"name":"Mandalay","lon":96.08,"lat":21.97,"pop":1300000},{"name":"Jamshedpur","lon":86.2,"lat":22.79,"pop":1300000},{"name":"Mbuji-Mayi","lon":23.6,"lat":-6.15,"pop":1295000},{"name":"Madurai","lon":78.12,"lat":9.92,"pop":1294000},{"name":"Adana","lon":35.32,"lat":37,"pop":1293000},{"name":"Sheffield","lon":-1.5,"lat":53.37,"pop":1292900},{"name":"Jabalpur","lon":79.95,"lat":23.18,"pop":1285000},{"name":"San José","lon":-84.08,"lat":9.93,"pop":1284000},{"name":"Panama City","lon":-79.53,"lat":8.97,"pop":1281000},{"name":"Nizhny Novgorod","lon":44,"lat":56.33,"pop":1278000},{"name":"Providence","lon":-71.42,"lat":41.82,"pop":1277000},{"name":"Chifeng","lon":118.95,"lat":42.27,"pop":1277000},{"name":"Duisburg","lon":6.75,"lat":51.43,"pop":1276757},{"name":"Munich","lon":11.57,"lat":48.13,"pop":1275000},{"name":"Columbus","lon":-82.99,"lat":39.98,"pop":1270000},{"name":"Huaiyin","lon":119.07,"lat":33.59,"pop":1264000},{"name":"Stockholm","lon":18.07,"lat":59.32,"pop":1264000},{"name":"Makassar","lon":119.43,"lat":-5.14,"pop":1262000},{"name":"Rajkot","lon":70.8,"lat":22.31,"pop":1260000},{"name":"West Palm Beach","lon":-80.12,"lat":26.75,"pop":1250000},{"name":"Dhanbad","lon":86.42,"lat":23.8,"pop":1246000},{"name":"Mudangiang","lon":129.59,"lat":44.58,"pop":1244000},{"name":"Shiraz","lon":52.57,"lat":29.63,"pop":1240000},{"name":"Geneva","lon":6.14,"lat":46.21,"pop":1240000},{"name":"Huzhou","lon":120.1,"lat":30.87,"pop":1231000},{"name":"Tianshui","lon":105.92,"lat":34.6,"pop":1225000},{"name":"Liupanshui","lon":104.83,"lat":26.6,"pop":1221000},{"name":"Düsseldorf","lon":6.78,"lat":51.22,"pop":1220000},{"name":"Maoming","lon":110.87,"lat":21.92,"pop":1217715},{"name":"Seville","lon":-5.98,"lat":37.41,"pop":1212045},{"name":"Amritsar","lon":74.87,"lat":31.64,"pop":1212000},{"name":"Vila Velha","lon":-51.22,"lat":3.22,"pop":1209091},{"name":"Vila Velha","lon":-40.29,"lat":-20.34,"pop":1209091},{"name":"Almaty","lon":76.91,"lat":43.33,"pop":1209000},{"name":"Warangal","lon":79.58,"lat":18.01,"pop":1203853},{"name":"Rosario","lon":-60.67,"lat":-32.95,"pop":1203000},{"name":"Allahabad","lon":81.84,"lat":25.46,"pop":1201000},{"name":"Benin City","lon":5.62,"lat":6.34,"pop":1190000},{"name":"Jining","lon":116.55,"lat":35.4,"pop":1186000},{"name":"Maceió","lon":-35.73,"lat":-9.62,"pop":1186000},{"name":"Sofia","lon":23.31,"lat":42.69,"pop":1185000},{"name":"Abbottabad","lon":73.2,"lat":34.15,"pop":1183647},{"name":"Banghazi","lon":20.06,"lat":32.12,"pop":1180000},{"name":"Cilacap","lon":109.02,"lat":-7.72,"pop":1174964},{"name":"Raleigh","lon":-78.65,"lat":35.77,"pop":1163515},{"name":"Prague","lon":14.42,"lat":50.09,"pop":1162000},{"name":"Austin","lon":-97.74,"lat":30.27,"pop":1161000},{"name":"Glasgow","lon":-4.24,"lat":55.86,"pop":1160000},{"name":"Leshan","lon":103.73,"lat":29.57,"pop":1157000},{"name":"Ouagadougou","lon":-1.53,"lat":12.37,"pop":1149000},{"name":"Ottawa","lon":-75.7,"lat":45.42,"pop":1145000},{"name":"Adelaide","lon":138.6,"lat":-34.93,"pop":1145000},{"name":"Shangrao","lon":117.97,"lat":28.47,"pop":1144577},{"name":"Torreón","lon":-103.42,"lat":25.57,"pop":1144000},{"name":"Srinagar","lon":74.83,"lat":34.07,"pop":1140000},{"name":"Vijayawada","lon":80.63,"lat":16.52,"pop":1137000},{"name":"Samara","lon":50.15,"lat":53.2,"pop":1137000},{"name":"Omsk","lon":73.4,"lat":54.99,"pop":1135000},{"name":"Birmingham","lon":-86.82,"lat":33.53,"pop":1128047},{"name":"Nampo","lon":125.45,"lat":38.77,"pop":1127000},{"name":"Yulin","lon":110.15,"lat":22.63,"pop":1127000},{"name":"Xianyang","lon":108.71,"lat":34.35,"pop":1126000},{"name":"Cagayan de Oro","lon":124.69,"lat":8.45,"pop":1121561},{"name":"Can Tho","lon":105.77,"lat":10.05,"pop":1121000},{"name":"Barquisimeto","lon":-69.3,"lat":10.05,"pop":1116000},{"name":"Kazan","lon":49.12,"lat":55.75,"pop":1115000},{"name":"Helsinki","lon":24.93,"lat":60.16,"pop":1115000},{"name":"Aurangabad","lon":75.33,"lat":19.86,"pop":1113000},{"name":"Calgary","lon":-114.08,"lat":51.08,"pop":1110000},{"name":"Nezahualcoyotl","lon":-99.03,"lat":19.41,"pop":1109363},{"name":"Zürich","lon":8.55,"lat":47.38,"pop":1108000},{"name":"Baoding","lon":115.47,"lat":38.86,"pop":1107000},{"name":"Zigong","lon":104.78,"lat":29.4,"pop":1105000},{"name":"Sharjah","lon":55.41,"lat":25.37,"pop":1103027},{"name":"Yerevan","lon":44.51,"lat":40.18,"pop":1102000},{"name":"Ankang","lon":109.02,"lat":32.68,"pop":1100000},{"name":"Mogadishu","lon":45.36,"lat":2.07,"pop":1100000},{"name":"Tbilisi","lon":44.79,"lat":41.73,"pop":1100000},{"name":"Huambo","lon":15.76,"lat":-12.75,"pop":1100000},{"name":"Ikare","lon":5.76,"lat":7.53,"pop":1099931},{"name":"Belgrade","lon":20.47,"lat":44.82,"pop":1099000},{"name":"Bhilai","lon":81.37,"lat":21.21,"pop":1097000},{"name":"Jinhua","lon":119.65,"lat":29.12,"pop":1092852},{"name":"Chelyabinsk","lon":61.44,"lat":55.16,"pop":1091000},{"name":"Natal","lon":-35.24,"lat":-5.78,"pop":1088000},{"name":"Dushanbe","lon":68.77,"lat":38.56,"pop":1086244},{"name":"Mesa","lon":-111.82,"lat":33.41,"pop":1085394},{"name":"København","lon":12.56,"lat":55.68,"pop":1085000},{"name":"Changwon","lon":128.58,"lat":35.22,"pop":1081499},{"name":"Memphis","lon":-90.03,"lat":35.14,"pop":1081000},{"name":"Zhuzhou","lon":113.15,"lat":27.83,"pop":1080000},{"name":"Suwon","lon":127.01,"lat":37.26,"pop":1078000},{"name":"Vereeniging","lon":27.96,"lat":-26.65,"pop":1074000},{"name":"Xiangyang","lon":112.13,"lat":32.02,"pop":1069000},{"name":"Ulsan","lon":129.32,"lat":35.55,"pop":1061000},{"name":"Zhucheng","lon":119.38,"lat":35.99,"pop":1060000},{"name":"Amman","lon":35.93,"lat":31.95,"pop":1060000},{"name":"Dublin","lon":-6.26,"lat":53.35,"pop":1059000},{"name":"Edmonton","lon":-113.5,"lat":53.55,"pop":1058000},{"name":"Sholapur","lon":75.9,"lat":17.67,"pop":1057000},{"name":"Rostov","lon":39.71,"lat":47.24,"pop":1052000},{"name":"Dnipro","lon":35,"lat":48.48,"pop":1050000},{"name":"Xining","lon":101.77,"lat":36.62,"pop":1048000},{"name":"Norfolk","lon":-76.28,"lat":36.85,"pop":1047869},{"name":"Zhangjiakou","lon":114.85,"lat":40.81,"pop":1046000},{"name":"Lille","lon":3.08,"lat":50.65,"pop":1044000},{"name":"Gaziantep","lon":37.38,"lat":37.08,"pop":1044000},{"name":"Ranchi","lon":85.33,"lat":23.37,"pop":1044000},{"name":"Monrovia","lon":-10.8,"lat":6.31,"pop":1041000},{"name":"São Luís","lon":-44.27,"lat":-2.51,"pop":1038000},{"name":"Amsterdam","lon":4.91,"lat":52.35,"pop":1031000},{"name":"Jerusalem","lon":35.21,"lat":31.78,"pop":1029300},{"name":"Guatemala City","lon":-90.53,"lat":14.62,"pop":1024000},{"name":"Zhuhai","lon":113.57,"lat":22.28,"pop":1023000},{"name":"Florianópolis","lon":-48.52,"lat":-27.58,"pop":1023000},{"name":"Port Elizabeth","lon":25.6,"lat":-33.97,"pop":1021000},{"name":"Port Harcourt","lon":7.01,"lat":4.81,"pop":1020000},{"name":"Jiamusi","lon":130.35,"lat":46.83,"pop":1020000},{"name":"Bridgeport","lon":-73.2,"lat":41.18,"pop":1018000},{"name":"Ufa","lon":56.04,"lat":54.79,"pop":1018000},{"name":"Hengyang","lon":112.59,"lat":26.88,"pop":1016000},{"name":"Buffalo","lon":-78.88,"lat":42.88,"pop":1016000},{"name":"Benxi","lon":123.75,"lat":41.33,"pop":1012000},{"name":"Haifa","lon":34.98,"lat":32.82,"pop":1011000},{"name":"Medina","lon":39.58,"lat":24.5,"pop":1010000},{"name":"Bucaramanga","lon":-73.13,"lat":7.13,"pop":1009000},{"name":"Maracay","lon":-67.6,"lat":10.25,"pop":1007000},{"name":"Rotterdam","lon":4.48,"lat":51.92,"pop":1005000},{"name":"Homs","lon":36.72,"lat":34.73,"pop":1005000},{"name":"Cologne","lon":6.95,"lat":50.93,"pop":1004000},{"name":"Qinhuangdao","lon":119.62,"lat":39.93,"pop":1003000},{"name":"Fez","lon":-5,"lat":34.06,"pop":1002000},{"name":"Yongzhou","lon":111.61,"lat":26.42,"pop":1000000},{"name":"Cochabamba","lon":-66.17,"lat":-17.41,"pop":1000000},{"name":"Da Nang","lon":108.25,"lat":16.06,"pop":1000000},{"name":"Baoshan","lon":99.15,"lat":25.12,"pop":1000000},{"name":"Aden","lon":45.01,"lat":12.78,"pop":1000000},{"name":"Kitakyūshū","lon":130.82,"lat":33.87,"pop":997536},{"name":"Perm","lon":56.25,"lat":58,"pop":997000},{"name":"Ahvaz","lon":48.72,"lat":31.28,"pop":996000},{"name":"Charlotte","lon":-80.83,"lat":35.21,"pop":995000},{"name":"Jodhpur","lon":73.01,"lat":26.29,"pop":995000},{"name":"San Luis Potosí","lon":-101,"lat":22.17,"pop":992000},{"name":"Odessa","lon":30.71,"lat":46.49,"pop":991000},{"name":"Yinchuan","lon":106.27,"lat":38.47,"pop":991000},{"name":"N'Djamena","lon":15.05,"lat":12.12,"pop":989000},{"name":"Jiaxing","lon":120.75,"lat":30.77,"pop":988000},{"name":"Joinville","lon":-48.84,"lat":-26.32,"pop":988000},{"name":"Jacksonville","lon":-81.67,"lat":30.33,"pop":988000},{"name":"Donetsk","lon":37.83,"lat":48,"pop":988000},{"name":"Guilin","lon":110.28,"lat":25.28,"pop":987000},{"name":"Duhok","lon":43,"lat":36.87,"pop":986000},{"name":"Volgograd","lon":44.5,"lat":48.71,"pop":984000},{"name":"Guwahati","lon":91.77,"lat":26.16,"pop":983000},{"name":"Yichun","lon":114.4,"lat":27.84,"pop":982000},{"name":"Yangquan","lon":113.57,"lat":37.87,"pop":981448},{"name":"Natal","lon":-60.27,"lat":-6.98,"pop":980588},{"name":"Chandigarh","lon":76.78,"lat":30.72,"pop":979000},{"name":"Gwalior","lon":78.17,"lat":26.2,"pop":978000},{"name":"Hamamatsu","lon":137.73,"lat":34.72,"pop":977023},{"name":"Qom","lon":50.95,"lat":34.65,"pop":973000},{"name":"Salt Lake City","lon":-111.93,"lat":40.78,"pop":966000},{"name":"Jixi","lon":130.97,"lat":45.3,"pop":965000},{"name":"Mérida","lon":-89.62,"lat":20.97,"pop":965000},{"name":"Xinyi","lon":118.35,"lat":34.38,"pop":962656},{"name":"Querétaro","lon":-100.39,"lat":20.58,"pop":961000},{"name":"Pingxiang","lon":113.85,"lat":27.62,"pop":961000},{"name":"Kelang","lon":101.45,"lat":3.04,"pop":956000},{"name":"Jinzhou","lon":121.1,"lat":41.12,"pop":956000},{"name":"João Pessoa","lon":-34.88,"lat":-7.1,"pop":956000},{"name":"Salerno","lon":14.77,"lat":40.68,"pop":954265},{"name":"Thiruvananthapuram","lon":76.93,"lat":8.52,"pop":954000},{"name":"Kozhikode","lon":75.77,"lat":11.25,"pop":953000},{"name":"Ogbomosho","lon":4.24,"lat":8.13,"pop":951000},{"name":"Tiruchirappalli","lon":78.69,"lat":10.8,"pop":951000},{"name":"General Santos","lon":125.17,"lat":6.11,"pop":950530},{"name":"Hue","lon":107.58,"lat":16.47,"pop":950000},{"name":"Bacolod","lon":122.98,"lat":10.63,"pop":949354},{"name":"Louisville","lon":-85.75,"lat":38.23,"pop":948000},{"name":"Nantong","lon":120.92,"lat":31.98,"pop":947000},{"name":"Tulsa","lon":-95.93,"lat":36.12,"pop":946962},{"name":"Tegucigalpa","lon":-87.22,"lat":14.1,"pop":946000},{"name":"Foshan","lon":113.11,"lat":23.01,"pop":943000},{"name":"Songnam","lon":127.14,"lat":37.44,"pop":942000},{"name":"Kingston","lon":-76.77,"lat":17.98,"pop":937700},{"name":"Naypyidaw","lon":96.12,"lat":19.77,"pop":930000},{"name":"Nice","lon":7.26,"lat":43.72,"pop":927000},{"name":"Irbil","lon":44.01,"lat":36.18,"pop":926000},{"name":"Krasnoyarsk","lon":92.86,"lat":56.02,"pop":925000},{"name":"Djibouti","lon":43.15,"lat":11.6,"pop":923000},{"name":"Olinda","lon":-34.85,"lat":-8,"pop":921840},{"name":"Antwerpen","lon":4.41,"lat":51.22,"pop":920000},{"name":"Managua","lon":-86.27,"lat":12.15,"pop":920000},{"name":"Konya","lon":32.47,"lat":37.88,"pop":919000},{"name":"Bogor","lon":106.75,"lat":-6.57,"pop":918000},{"name":"Niamey","lon":2.11,"lat":13.52,"pop":915000},{"name":"Hartford","lon":-72.68,"lat":41.77,"pop":913000},{"name":"Huaibei","lon":116.75,"lat":33.95,"pop":913000},{"name":"Xinyu","lon":114.93,"lat":27.8,"pop":913000},{"name":"Richmond","lon":-77.45,"lat":37.55,"pop":912000},{"name":"Teresina","lon":-42.78,"lat":-5.09,"pop":907000},{"name":"Naha","lon":127.67,"lat":26.21,"pop":905238},{"name":"Goyang","lon":126.84,"lat":37.65,"pop":903000},{"name":"Xinxiang","lon":113.91,"lat":35.3,"pop":903000},{"name":"Yibin","lon":104.57,"lat":28.77,"pop":902000},{"name":"Albuquerque","lon":-106.64,"lat":35.1,"pop":898642},{"name":"Aba","lon":7.35,"lat":5.1,"pop":897560},{"name":"Maiduguri","lon":13.16,"lat":11.85,"pop":896000},{"name":"Tirana","lon":19.82,"lat":41.33,"pop":895350},{"name":"Kathmandu","lon":85.31,"lat":27.72,"pop":895000},{"name":"Az Zarqa","lon":36.1,"lat":32.07,"pop":894691},{"name":"Tarsus","lon":34.88,"lat":36.92,"pop":894318},{"name":"Bengbu","lon":117.33,"lat":32.95,"pop":894000},{"name":"Mendoza","lon":-68.82,"lat":-32.88,"pop":893000},{"name":"Hubballi","lon":75.12,"lat":15.36,"pop":890000},{"name":"Concepción","lon":-73.05,"lat":-36.83,"pop":889725},{"name":"Zaria","lon":7.71,"lat":11.08,"pop":889000},{"name":"Anyang","lon":114.35,"lat":36.08,"pop":887000},{"name":"Mysuru","lon":76.66,"lat":12.31,"pop":887000},{"name":"Cartagena","lon":-75.52,"lat":10.4,"pop":887000},{"name":"Mexicali","lon":-115.48,"lat":32.65,"pop":885000},{"name":"Ulaanbaatar","lon":106.91,"lat":47.92,"pop":885000},{"name":"Tongliao","lon":122.27,"lat":43.62,"pop":884000},{"name":"Newcastle","lon":-1.61,"lat":54.99,"pop":882000},{"name":"Mombasa","lon":39.69,"lat":-4.04,"pop":882000},{"name":"Bandar Lampung","lon":105.3,"lat":-5.45,"pop":881801},{"name":"Omaha","lon":-96.01,"lat":41.24,"pop":877110},{"name":"Nashville","lon":-86.78,"lat":36.17,"pop":877000},{"name":"Novo Hamburgo","lon":-51.14,"lat":-29.71,"pop":876990},{"name":"Callao","lon":-77.13,"lat":-12.07,"pop":876877},{"name":"Bilbao","lon":-2.93,"lat":43.25,"pop":875552},{"name":"Johor Bahru","lon":103.73,"lat":1.48,"pop":875000},{"name":"Yichang","lon":111.28,"lat":30.7,"pop":875000},{"name":"Raipur","lon":81.63,"lat":21.24,"pop":875000},{"name":"Salem","lon":78.18,"lat":11.67,"pop":873000},{"name":"Yangjiang","lon":111.97,"lat":21.85,"pop":872363},{"name":"Kaifeng","lon":114.35,"lat":34.79,"pop":872000},{"name":"Marrakesh","lon":-8,"lat":31.63,"pop":872000},{"name":"Albany","lon":-73.76,"lat":42.65,"pop":870716},{"name":"Dandong","lon":124.39,"lat":40.15,"pop":870000},{"name":"Basra","lon":47.81,"lat":30.52,"pop":870000},{"name":"Aguascalientes","lon":-102.29,"lat":21.88,"pop":869000},{"name":"Okayama","lon":133.92,"lat":34.67,"pop":866092},{"name":"Bucheon","lon":126.78,"lat":37.5,"pop":866000},{"name":"Xuanzhou","lon":118.75,"lat":30.95,"pop":866000},{"name":"Rizhao","lon":119.45,"lat":35.43,"pop":865000},{"name":"Bandar Lampung","lon":105.27,"lat":-5.43,"pop":865000},{"name":"Palermo","lon":13.35,"lat":38.13,"pop":863000},{"name":"Cardiff","lon":-3.17,"lat":51.48,"pop":861400},{"name":"Kigali","lon":30.06,"lat":-1.95,"pop":860000},{"name":"Tampico","lon":-97.87,"lat":22.3,"pop":859419},{"name":"Jiaozuo","lon":113.26,"lat":35.2,"pop":857000},{"name":"Jullundur","lon":75.57,"lat":31.34,"pop":855000},{"name":"Padang","lon":100.36,"lat":-0.96,"pop":855000},{"name":"Zhenjiang","lon":119.43,"lat":32.18,"pop":854000},{"name":"Valparaíso","lon":-71.62,"lat":-33.05,"pop":854000},{"name":"Shache","lon":77.25,"lat":38.43,"pop":851374},{"name":"Anshun","lon":105.93,"lat":26.25,"pop":849000},{"name":"Zunyi","lon":106.92,"lat":27.7,"pop":849000},{"name":"Pingdingshan","lon":113.3,"lat":33.73,"pop":849000},{"name":"Toulouse","lon":1.45,"lat":43.62,"pop":847000},{"name":"New Haven","lon":-72.9,"lat":41.33,"pop":846766},{"name":"Nova Iguaçu","lon":-43.45,"lat":-22.76,"pop":844583},{"name":"Voronezh","lon":39.19,"lat":51.67,"pop":844000},{"name":"Bhubaneswar","lon":85.83,"lat":20.27,"pop":844000},{"name":"Saratov","lon":46.03,"lat":51.58,"pop":843000},{"name":"Duque de Caxias","lon":-43.31,"lat":-22.8,"pop":842890},{"name":"Yuci","lon":112.73,"lat":37.68,"pop":840000},{"name":"Yancheng","lon":120.17,"lat":33.34,"pop":839000},{"name":"Bishkek","lon":74.58,"lat":42.88,"pop":837000},{"name":"Oslo","lon":10.75,"lat":59.92,"pop":835000},{"name":"Cuernavaca","lon":-99.24,"lat":18.92,"pop":834001},{"name":"Linfen","lon":111.52,"lat":36.08,"pop":834000},{"name":"Bangui","lon":18.56,"lat":4.37,"pop":831925},{"name":"Warri","lon":5.76,"lat":5.52,"pop":830106},{"name":"Basel","lon":7.59,"lat":47.58,"pop":830000},{"name":"Tucumán","lon":-65.22,"lat":-26.81,"pop":830000},{"name":"Kermanshah","lon":47.06,"lat":34.38,"pop":828313},{"name":"Thessaloniki","lon":22.88,"lat":40.7,"pop":828000},{"name":"Kota","lon":75.83,"lat":25.18,"pop":827000},{"name":"Freetown","lon":-13.24,"lat":8.47,"pop":827000},{"name":"Braga","lon":-8.42,"lat":41.55,"pop":826833},{"name":"Jhansi","lon":78.56,"lat":25.45,"pop":826494},{"name":"Yueyang","lon":113.1,"lat":29.38,"pop":826000},{"name":"Nottingham","lon":-1.17,"lat":52.94,"pop":825600},{"name":"Agadir","lon":-9.62,"lat":30.44,"pop":825467},{"name":"Tucson","lon":-110.89,"lat":32.21,"pop":823000},{"name":"Butterworth","lon":100.4,"lat":5.42,"pop":821652},{"name":"Bareilly","lon":79.42,"lat":28.35,"pop":817000},{"name":"Jos","lon":8.89,"lat":9.93,"pop":816824},{"name":"Xingyi","lon":104.89,"lat":25.09,"pop":816000},{"name":"Arequipa","lon":-71.53,"lat":-16.42,"pop":815000},{"name":"Cebu","lon":123.9,"lat":10.32,"pop":815000},{"name":"Liverpool","lon":-2.96,"lat":53.41,"pop":811000},{"name":"Wuhu","lon":118.37,"lat":31.35,"pop":810000},{"name":"Langfang","lon":116.68,"lat":39.52,"pop":810000},{"name":"Rajshahi","lon":88.6,"lat":24.38,"pop":810000},{"name":"Zhaotang","lon":103.72,"lat":27.32,"pop":809000},{"name":"Culiacán","lon":-107.38,"lat":24.83,"pop":809000},{"name":"Valencia","lon":-0.4,"lat":39.49,"pop":808000},{"name":"Lingyuan","lon":119.4,"lat":41.24,"pop":806000},{"name":"Cuiabá","lon":-56.09,"lat":-15.57,"pop":806000},{"name":"Qui Nhon","lon":109.18,"lat":13.78,"pop":805290},{"name":"Aligarh","lon":78.06,"lat":27.89,"pop":805000},{"name":"Malang","lon":112.61,"lat":-7.98,"pop":805000},{"name":"Lviv","lon":24.03,"lat":49.83,"pop":803880},{"name":"Bordeaux","lon":-0.6,"lat":44.85,"pop":803000},{"name":"St. Petersburg","lon":-82.68,"lat":27.77,"pop":800313},{"name":"Baoji","lon":107.15,"lat":34.38,"pop":800000},{"name":"Pekanbaru","lon":101.42,"lat":0.57,"pop":799000},{"name":"Oran","lon":-0.62,"lat":35.71,"pop":798000},{"name":"Yingkow","lon":122.28,"lat":40.67,"pop":795000},{"name":"Bhiwandi","lon":73.13,"lat":19.35,"pop":795000},{"name":"Liaoyang","lon":123.18,"lat":41.28,"pop":794000},{"name":"Chihuahua","lon":-106.09,"lat":28.65,"pop":793000},{"name":"Jammu","lon":74.84,"lat":32.71,"pop":791000},{"name":"Malacca","lon":102.25,"lat":2.21,"pop":788706},{"name":"Zaporizhzhya","lon":35.17,"lat":47.86,"pop":788000},{"name":"Oklahoma City","lon":-97.52,"lat":35.47,"pop":788000},{"name":"Moradabad","lon":78.75,"lat":28.84,"pop":787000},{"name":"Honolulu","lon":-157.86,"lat":21.3,"pop":786000},{"name":"New Orleans","lon":-90.09,"lat":29.97,"pop":785000},{"name":"Antalya","lon":30.7,"lat":36.89,"pop":783000},{"name":"Al Hudaydah","lon":42.95,"lat":14.8,"pop":780000},{"name":"Islamabad","lon":73.08,"lat":33.69,"pop":780000},{"name":"Campo Grande","lon":-54.62,"lat":-20.45,"pop":778000},{"name":"Shaoxing","lon":120.57,"lat":30,"pop":777000},{"name":"Yichun","lon":128.9,"lat":47.7,"pop":777000},{"name":"Mangaluru","lon":74.85,"lat":12.9,"pop":776632},{"name":"Wuppertal","lon":7.17,"lat":51.25,"pop":776525},{"name":"Cheongju","lon":127.5,"lat":36.64,"pop":775096},{"name":"Dayton","lon":-84.2,"lat":39.75,"pop":773000},{"name":"Hamhung","lon":127.54,"lat":39.91,"pop":773000},{"name":"Zamboanga","lon":122.08,"lat":6.92,"pop":773000},{"name":"Ilorin","lon":4.55,"lat":8.49,"pop":771000},{"name":"Fuyang","lon":119.95,"lat":30.06,"pop":771000},{"name":"Saarbrücken","lon":6.97,"lat":49.25,"pop":770001},{"name":"Shiyan","lon":110.78,"lat":32.57,"pop":770000},{"name":"Fuxin","lon":121.66,"lat":42.01,"pop":770000},{"name":"Quetta","lon":67.02,"lat":30.22,"pop":768000},{"name":"Trujillo","lon":-79.02,"lat":-8.12,"pop":765171},{"name":"Kananga","lon":22.4,"lat":-5.89,"pop":765000},{"name":"Trabzon","lon":39.72,"lat":40.98,"pop":764714},{"name":"Cotonou","lon":2.4,"lat":6.36,"pop":762000},{"name":"Jincheng","lon":112.83,"lat":35.5,"pop":760000},{"name":"Łódź","lon":19.46,"lat":51.77,"pop":758000},{"name":"Kraków","lon":19.96,"lat":50.06,"pop":756000},{"name":"Rochester","lon":-77.62,"lat":43.17,"pop":755000},{"name":"Saltillo","lon":-101.01,"lat":25.42,"pop":754000},{"name":"Vientiane","lon":102.6,"lat":17.97,"pop":754000},{"name":"São José dos Campos","lon":-45.88,"lat":-23.2,"pop":753769},{"name":"El Paso","lon":-106.51,"lat":31.78,"pop":753000},{"name":"Taizz","lon":44.04,"lat":13.61,"pop":751000},{"name":"Pietermaritzburg","lon":30.39,"lat":-29.61,"pop":750845},{"name":"Tangier","lon":-5.81,"lat":35.78,"pop":750060},{"name":"Changhua","lon":120.51,"lat":24.07,"pop":750000},{"name":"Hsinchu","lon":120.98,"lat":24.82,"pop":750000},{"name":"Fargona","lon":71.78,"lat":40.39,"pop":750000},{"name":"Namangan","lon":71.67,"lat":41,"pop":750000},{"name":"Kolhapur","lon":74.22,"lat":16.7,"pop":750000},{"name":"Liège","lon":5.58,"lat":50.63,"pop":749110},{"name":"Stamford","lon":-73.54,"lat":41.05,"pop":746920},{"name":"Ciudad Guayana","lon":-62.62,"lat":8.37,"pop":746535},{"name":"Hegang","lon":130.3,"lat":47.35,"pop":743307},{"name":"Riga","lon":24.1,"lat":56.95,"pop":742572},{"name":"Nouakchott","lon":-15.98,"lat":18.09,"pop":742144},{"name":"Naga","lon":123.18,"lat":13.62,"pop":741635},{"name":"Gdańsk","lon":18.64,"lat":54.36,"pop":740000},{"name":"Ansan","lon":126.86,"lat":37.35,"pop":739493},{"name":"Nürnberg","lon":11.08,"lat":49.45,"pop":737304},{"name":"Oyo","lon":3.93,"lat":7.85,"pop":736072},{"name":"St.  Paul","lon":-93.08,"lat":44.94,"pop":734854},{"name":"Muscat","lon":58.38,"lat":23.59,"pop":734697},{"name":"Amravati","lon":77.78,"lat":20.93,"pop":734451},{"name":"Denpasar","lon":115.22,"lat":-8.65,"pop":732344},{"name":"Sokoto","lon":5.24,"lat":13.06,"pop":732178},{"name":"Beihai","lon":109.1,"lat":21.48,"pop":728978},{"name":"Ashgabat","lon":58.38,"lat":37.95,"pop":727700},{"name":"Bremen","lon":8.8,"lat":53.08,"pop":724909},{"name":"Arlington","lon":-97.02,"lat":32.68,"pop":724777},{"name":"Lowell","lon":-71.32,"lat":42.63,"pop":723629},{"name":"As Sulaymaniyah","lon":45.43,"lat":35.56,"pop":723170},{"name":"Zagreb","lon":16,"lat":45.8,"pop":722526},{"name":"Hanover","lon":9.72,"lat":52.37,"pop":722490},{"name":"Cúcuta","lon":-72.52,"lat":7.92,"pop":722146},{"name":"Hamilton","lon":-79.83,"lat":43.25,"pop":721053},{"name":"Moshi","lon":37.34,"lat":-3.34,"pop":721018},{"name":"Shaoguan","lon":113.58,"lat":24.8,"pop":720266},{"name":"Tacoma","lon":-122.45,"lat":47.24,"pop":719868},{"name":"Kumamoto","lon":130.7,"lat":32.8,"pop":718232},{"name":"Lianyungang","lon":119.23,"lat":34.59,"pop":715600},{"name":"Acapulco","lon":-99.92,"lat":16.85,"pop":715584},{"name":"Kandahar","lon":65.69,"lat":31.61,"pop":715542},{"name":"Dehra Dun","lon":78.05,"lat":30.32,"pop":714223},{"name":"Jeonju","lon":127.14,"lat":35.83,"pop":711424},{"name":"Samarkand","lon":66.94,"lat":39.67,"pop":708000},{"name":"Qingyuan","lon":113.03,"lat":23.7,"pop":706717},{"name":"Changzhi","lon":113.11,"lat":36.18,"pop":706000},{"name":"Akron","lon":-81.52,"lat":41.07,"pop":703200},{"name":"Tolyatti","lon":49.42,"lat":53.51,"pop":702879},{"name":"Jaboatao","lon":-35.02,"lat":-8.11,"pop":702621},{"name":"Shizuoka","lon":138.39,"lat":34.99,"pop":701561},{"name":"Bulawayo","lon":28.58,"lat":-20.17,"pop":699385},{"name":"Soledad","lon":-74.77,"lat":10.92,"pop":698852},{"name":"Meknes","lon":-5.56,"lat":33.9,"pop":697628},{"name":"Sarajevo","lon":18.38,"lat":43.85,"pop":696731},{"name":"Aksu","lon":80.25,"lat":41.15,"pop":695000},{"name":"La Plata","lon":-57.95,"lat":-34.92,"pop":694253},{"name":"Malegaon","lon":74.53,"lat":20.56,"pop":690844},{"name":"Enugu","lon":7.5,"lat":6.45,"pop":688862},{"name":"Chișinău","lon":28.86,"lat":47.01,"pop":688134},{"name":"Huangshi","lon":115.1,"lat":30.22,"pop":688090},{"name":"Aracaju","lon":-37.12,"lat":-10.9,"pop":685356},{"name":"Stockton","lon":-121.29,"lat":37.96,"pop":685306},{"name":"Bonn","lon":7.08,"lat":50.72,"pop":680543},{"name":"San Pedro Sula","lon":-88.03,"lat":15.5,"pop":680091},{"name":"Nellore","lon":79.99,"lat":14.44,"pop":678004},{"name":"Catania","lon":15.08,"lat":37.5,"pop":674542},{"name":"Gorakhpur","lon":83.38,"lat":26.75,"pop":674246},{"name":"Ipoh","lon":101.06,"lat":4.6,"pop":673318},{"name":"Chongjin","lon":129.79,"lat":41.78,"pop":672614},{"name":"Utsunomiya","lon":139.87,"lat":36.55,"pop":667752},{"name":"Puyang","lon":114.98,"lat":35.7,"pop":666322},{"name":"Najaf","lon":44.34,"lat":32,"pop":665552},{"name":"São José dos Pinhais","lon":-49.18,"lat":-25.57,"pop":665063},{"name":"Syracuse","lon":-76.15,"lat":43.05,"pop":662577},{"name":"Santo André","lon":-46.53,"lat":-23.65,"pop":662373},{"name":"Bytom","lon":18.91,"lat":50.35,"pop":662247},{"name":"Pointe-Noire","lon":11.88,"lat":-4.77,"pop":659084},{"name":"At Taif","lon":40.38,"lat":21.26,"pop":657282},{"name":"Ismaïlia","lon":32.26,"lat":30.59,"pop":656135},{"name":"Knoxville","lon":-83.92,"lat":35.97,"pop":655400},{"name":"Shivamogga","lon":75.56,"lat":13.93,"pop":654055},{"name":"Biên Hòa","lon":106.83,"lat":10.97,"pop":652646},{"name":"Zhanyi","lon":103.82,"lat":25.6,"pop":652604},{"name":"Kryvyy Rih","lon":33.34,"lat":47.93,"pop":652380},{"name":"Turpan","lon":89.17,"lat":42.94,"pop":651853},{"name":"Irbid","lon":35.85,"lat":32.55,"pop":650000},{"name":"Tiruppur","lon":77.33,"lat":11.08,"pop":650000},{"name":"Andijan","lon":72.34,"lat":40.79,"pop":650000},{"name":"Krasnodar","lon":39,"lat":45.02,"pop":649851},{"name":"Zaragoza","lon":-0.89,"lat":41.65,"pop":649404},{"name":"Genoa","lon":8.93,"lat":44.41,"pop":647497},{"name":"Lilongwe","lon":33.78,"lat":-13.98,"pop":646750},{"name":"Diyarbakır","lon":40.23,"lat":37.92,"pop":644763},{"name":"Morelia","lon":-101.19,"lat":19.73,"pop":644306},{"name":"Ulyanovsk","lon":48.41,"lat":54.33,"pop":640680},{"name":"Utrecht","lon":5.12,"lat":52.1,"pop":640000},{"name":"Shihezi","lon":86.03,"lat":44.3,"pop":640000},{"name":"Kikwit","lon":18.85,"lat":-5.03,"pop":637736},{"name":"Hofuf","lon":49.59,"lat":25.35,"pop":637389},{"name":"Yogyakarta","lon":110.38,"lat":-7.78,"pop":636660},{"name":"Wrocław","lon":17.03,"lat":51.11,"pop":634893},{"name":"Winnipeg","lon":-97.17,"lat":49.88,"pop":632063},{"name":"Izhevsk","lon":53.23,"lat":56.85,"pop":631038},{"name":"Pasadena","lon":-95.15,"lat":29.66,"pop":628492},{"name":"Zhuozhou","lon":115.79,"lat":39.54,"pop":628000},{"name":"San Mateo","lon":-122.3,"lat":37.54,"pop":626406},{"name":"Raurkela","lon":84.83,"lat":22.23,"pop":625831},{"name":"Québec","lon":-71.25,"lat":46.84,"pop":624177},{"name":"Poznań","lon":16.9,"lat":52.41,"pop":623997},{"name":"Bur Said","lon":32.29,"lat":31.26,"pop":623864},{"name":"Nanded","lon":77.31,"lat":19.2,"pop":623708},{"name":"Bannu","lon":70.6,"lat":32.99,"pop":622419},{"name":"Asmara","lon":38.93,"lat":15.33,"pop":620802},{"name":"Southend-on-Sea","lon":0.72,"lat":51.55,"pop":618386},{"name":"Dresden","lon":13.75,"lat":51.05,"pop":617515},{"name":"Wiesbaden","lon":8.25,"lat":50.08,"pop":617126},{"name":"Icel","lon":34.62,"lat":36.8,"pop":616990},{"name":"Fresno","lon":-119.77,"lat":36.75,"pop":616353},{"name":"Changping","lon":116.19,"lat":40.22,"pop":614821},{"name":"Korla","lon":86.15,"lat":41.73,"pop":613000},{"name":"Palu","lon":119.83,"lat":-0.91,"pop":612445},{"name":"Taizhou","lon":119.9,"lat":32.49,"pop":612356},{"name":"Xiangtai","lon":114.5,"lat":37.05,"pop":611739},{"name":"Oceanside","lon":-117.35,"lat":33.19,"pop":609854},{"name":"Samsun","lon":36.34,"lat":41.28,"pop":609339},{"name":"Luxor","lon":32.65,"lat":25.7,"pop":609248},{"name":"Belagavi","lon":74.51,"lat":15.87,"pop":608756},{"name":"Pontianak","lon":109.32,"lat":-0.03,"pop":607311},{"name":"Yaroslavl","lon":39.87,"lat":57.62,"pop":606730},{"name":"Constantine","lon":6.6,"lat":36.36,"pop":605179},{"name":"Bandjarmasin","lon":114.58,"lat":-3.33,"pop":603576},{"name":"Abu Dhabi","lon":54.37,"lat":24.47,"pop":603492},{"name":"Kirkuk","lon":44.39,"lat":35.47,"pop":601433},{"name":"Sangli","lon":74.58,"lat":16.86,"pop":601214},{"name":"Barcelona","lon":-64.72,"lat":10.13,"pop":600954},{"name":"Canoas","lon":-51.18,"lat":-29.92,"pop":600000},{"name":"El Mansura","lon":31.38,"lat":31.05,"pop":600000},{"name":"Sohag","lon":31.7,"lat":26.55,"pop":600000},{"name":"Barnaul","lon":83.75,"lat":53.35,"pop":599579},{"name":"Zahedan","lon":60.83,"lat":29.5,"pop":598887},{"name":"Jalalabad","lon":70.44,"lat":34.44,"pop":597971},{"name":"Chiclayo","lon":-79.84,"lat":-6.76,"pop":596792},{"name":"Hermosillo","lon":-110.95,"lat":29.1,"pop":595811},{"name":"Port Louis","lon":57.5,"lat":-20.17,"pop":595491},{"name":"Chandrapur","lon":79.3,"lat":19.97,"pop":595118},{"name":"Al Hillah","lon":46.76,"lat":23.49,"pop":594605},{"name":"Al Hillah","lon":44.42,"lat":32.47,"pop":594605},{"name":"Rasht","lon":49.63,"lat":37.3,"pop":594590},{"name":"Nagano","lon":138.17,"lat":36.65,"pop":594311},{"name":"Vinh","lon":105.68,"lat":18.7,"pop":593645},{"name":"Abeokuta","lon":3.35,"lat":7.16,"pop":593100},{"name":"Kayseri","lon":35.49,"lat":38.73,"pop":592840},{"name":"Samarinda","lon":117.15,"lat":-0.5,"pop":592228},{"name":"Gary","lon":-87.33,"lat":41.58,"pop":591180},{"name":"Ajmer","lon":74.64,"lat":26.45,"pop":589985},{"name":"Sarasota","lon":-82.53,"lat":27.34,"pop":589959},{"name":"Dortmund","lon":7.45,"lat":51.53,"pop":588462},{"name":"Aurora","lon":-104.81,"lat":39.7,"pop":587540},{"name":"Vladivostok","lon":131.91,"lat":43.13,"pop":587022},{"name":"Irkutsk","lon":104.28,"lat":52.28,"pop":586695},{"name":"Covington","lon":-84.51,"lat":39.08,"pop":585489},{"name":"Blantyre","lon":34.99,"lat":-15.79,"pop":584877},{"name":"Anqing","lon":117.05,"lat":30.5,"pop":580497},{"name":"Cuttack","lon":85.89,"lat":20.47,"pop":580000},{"name":"Hami","lon":93.52,"lat":42.83,"pop":580000},{"name":"Hachiōji","lon":139.33,"lat":35.66,"pop":579399},{"name":"Khabarovsk","lon":135.12,"lat":48.45,"pop":579000},{"name":"Veracruz","lon":-96.16,"lat":19.18,"pop":578963},{"name":"Kisangani","lon":25.22,"lat":0.52,"pop":578470},{"name":"Joliet","lon":-88.11,"lat":41.53,"pop":578460},{"name":"Libreville","lon":9.46,"lat":0.39,"pop":578156},{"name":"Kerman","lon":57.08,"lat":30.3,"pop":577514},{"name":"Urmia","lon":45,"lat":37.53,"pop":577307},{"name":"Bikaner","lon":73.33,"lat":28.02,"pop":576015},{"name":"Quetzaltenango","lon":-91.52,"lat":14.83,"pop":575263},{"name":"Kuching","lon":110.33,"lat":1.53,"pop":570407},{"name":"Shuozhou","lon":112.42,"lat":39.3,"pop":570000},{"name":"Niigata","lon":139.04,"lat":37.92,"pop":569797},{"name":"Pereira","lon":-75.68,"lat":4.81,"pop":568750},{"name":"Macau","lon":113.54,"lat":22.19,"pop":568700},{"name":"Bouaké","lon":-5.03,"lat":7.69,"pop":567481},{"name":"Binjai","lon":98.5,"lat":3.62,"pop":564979},{"name":"Manama","lon":50.58,"lat":26.24,"pop":563920},{"name":"Uberlândia","lon":-48.28,"lat":-18.9,"pop":563536},{"name":"Sorocaba","lon":-47.47,"lat":-23.49,"pop":563281},{"name":"Tongling","lon":117.78,"lat":30.95,"pop":562832},{"name":"Weihai","lon":122.1,"lat":37.5,"pop":560255},{"name":"Mar del Plata","lon":-57.58,"lat":-38,"pop":555897},{"name":"Santiago de Cuba","lon":-75.82,"lat":20.03,"pop":555865},{"name":"Siping","lon":124.33,"lat":43.17,"pop":555609},{"name":"Kagoshima","lon":130.56,"lat":31.59,"pop":555352},{"name":"Surakarta","lon":110.83,"lat":-7.56,"pop":555308},{"name":"Makhachkala","lon":47.5,"lat":42.98,"pop":554981},{"name":"Bhavnagar","lon":72.13,"lat":21.78,"pop":554978},{"name":"Uyo","lon":7.92,"lat":5.04,"pop":554906},{"name":"Bristol","lon":-2.58,"lat":51.45,"pop":553528},{"name":"Bahawalpur","lon":71.67,"lat":29.39,"pop":552607},{"name":"Kenitra","lon":-6.58,"lat":34.27,"pop":551786},{"name":"Ribeirão Preto","lon":-47.83,"lat":-21.17,"pop":551267},{"name":"Kanazawa","lon":136.64,"lat":36.56,"pop":551249},{"name":"Orenburg","lon":55.11,"lat":51.78,"pop":550204},{"name":"Málaga","lon":-4.42,"lat":36.72,"pop":550058},{"name":"Tabuk","lon":36.55,"lat":28.38,"pop":547957},{"name":"Puerto la Cruz","lon":-64.68,"lat":10.17,"pop":546616},{"name":"Jiujiang","lon":115.98,"lat":29.73,"pop":545616},{"name":"Hisar","lon":75.73,"lat":29.17,"pop":544829},{"name":"Matola","lon":32.46,"lat":-25.97,"pop":543907},{"name":"Bilaspur","lon":82.16,"lat":22.09,"pop":543454},{"name":"Sargodha","lon":72.67,"lat":32.09,"pop":542603},{"name":"Leipzig","lon":12.41,"lat":51.34,"pop":542529},{"name":"Yining","lon":81.35,"lat":43.9,"pop":542507},{"name":"Vilnius","lon":25.32,"lat":54.68,"pop":542366},{"name":"Tirunelveli","lon":77.69,"lat":8.73,"pop":542200},{"name":"Cancún","lon":-86.83,"lat":21.17,"pop":542043},{"name":"Newcastle","lon":151.77,"lat":-32.93,"pop":540796},{"name":"Yangzhou","lon":119.43,"lat":32.4,"pop":539715},{"name":"Novokuznetsk","lon":87.11,"lat":53.75,"pop":539616},{"name":"Latakia","lon":35.78,"lat":35.54,"pop":539147},{"name":"Matamoros","lon":-97.5,"lat":25.88,"pop":538785},{"name":"Göteborg","lon":11.98,"lat":57.71,"pop":537797},{"name":"Ōtsu","lon":135.87,"lat":35.01,"pop":536976},{"name":"Grand Rapids","lon":-85.67,"lat":42.96,"pop":535829},{"name":"Tomsk","lon":84.98,"lat":56.49,"pop":535479},{"name":"Linxia","lon":103.2,"lat":35.6,"pop":534555},{"name":"Matsuyama","lon":132.77,"lat":33.85,"pop":533541},{"name":"Rouen","lon":1.08,"lat":49.43,"pop":532559},{"name":"Jiangmen","lon":113.08,"lat":22.58,"pop":532419},{"name":"Oaxaca","lon":-96.67,"lat":17.08,"pop":530728},{"name":"Beira","lon":34.87,"lat":-19.82,"pop":530604},{"name":"Guntur","lon":80.45,"lat":16.33,"pop":530577},{"name":"Ṭarābulus","lon":35.83,"lat":34.44,"pop":530000},{"name":"Harrisburg","lon":-76.88,"lat":40.27,"pop":528892},{"name":"Hamadan","lon":48.52,"lat":34.8,"pop":528256},{"name":"Cangzhou","lon":116.87,"lat":38.32,"pop":527681},{"name":"Kota Kinabalu","lon":116.11,"lat":5.98,"pop":527671},{"name":"Gold Coast","lon":153.45,"lat":-28.08,"pop":527660},{"name":"Vancouver","lon":-122.64,"lat":45.63,"pop":525802},{"name":"Jian","lon":115,"lat":27.13,"pop":520248},{"name":"Londrina","lon":-51.18,"lat":-23.3,"pop":520238},{"name":"Ryazan","lon":39.72,"lat":54.62,"pop":520173},{"name":"Jingzhou","lon":112.23,"lat":30.32,"pop":520000},{"name":"Bello","lon":-75.57,"lat":6.33,"pop":519670},{"name":"Tyumen","lon":65.53,"lat":57.14,"pop":519119},{"name":"Lipetsk","lon":39.64,"lat":52.62,"pop":515655},{"name":"Siliguri","lon":88.46,"lat":26.72,"pop":515574},{"name":"Eskişehir","lon":30.53,"lat":39.79,"pop":514869},{"name":"Banda Aceh","lon":95.32,"lat":5.55,"pop":513698},{"name":"Ujjain","lon":75.79,"lat":23.19,"pop":513350},{"name":"Salta","lon":-65.42,"lat":-24.78,"pop":512686},{"name":"Penza","lon":45,"lat":53.18,"pop":512602},{"name":"Blida","lon":2.83,"lat":36.42,"pop":511348},{"name":"Mykolayiv","lon":31.98,"lat":46.97,"pop":510840},{"name":"Karbala","lon":44.02,"lat":32.61,"pop":510692},{"name":"Suez","lon":32.55,"lat":30,"pop":508335},{"name":"Gliwice","lon":18.67,"lat":50.33,"pop":507670},{"name":"Bukittinggi","lon":100.36,"lat":-0.3,"pop":506964},{"name":"Kashgar","lon":75.97,"lat":39.48,"pop":506640},{"name":"Liaoyuan","lon":125.13,"lat":42.9,"pop":506548},{"name":"Gaza City","lon":34.45,"lat":31.53,"pop":505700},{"name":"Kota Baharu","lon":102.23,"lat":6.12,"pop":505583},{"name":"Jundiaí","lon":-46.88,"lat":-23.2,"pop":505548},{"name":"Edinburgh","lon":-3.22,"lat":55.95,"pop":504966},{"name":"Tlaxcala","lon":-98.23,"lat":19.32,"pop":503878},{"name":"Arak","lon":49.7,"lat":34.08,"pop":503647},{"name":"Davangere","lon":75.92,"lat":14.47,"pop":503564},{"name":"Viña del Mar","lon":-71.56,"lat":-33.02,"pop":503534},{"name":"Pingtung","lon":120.48,"lat":22.68,"pop":503530},{"name":"Annaba","lon":7.76,"lat":36.92,"pop":503524},{"name":"Akola","lon":77.01,"lat":20.71,"pop":503502},{"name":"Brighton","lon":-0.17,"lat":50.83,"pop":503008},{"name":"Astrakhan","lon":48.05,"lat":46.35,"pop":502533},{"name":"Bradford","lon":-1.75,"lat":53.79,"pop":501700},{"name":"Kansas City","lon":-94.63,"lat":39.11,"pop":501577},{"name":"Bari","lon":16.87,"lat":41.11,"pop":500577},{"name":"Taoyuan","lon":121.31,"lat":24.99,"pop":500000},{"name":"Glendale","lon":-112.17,"lat":33.54,"pop":500000},{"name":"San Lorenzo","lon":-57.52,"lat":-25.34,"pop":500000},{"name":"Keelung","lon":121.73,"lat":25.13,"pop":500000},{"name":"Mazatlán","lon":-110.13,"lat":29.02,"pop":500000},{"name":"Awka","lon":7.07,"lat":6.21,"pop":500000},{"name":"Pasuruan","lon":112.9,"lat":-7.63,"pop":500000},{"name":"Damanhûr","lon":30.47,"lat":31.05,"pop":500000},{"name":"Shuangyashan","lon":131.35,"lat":46.67,"pop":500000},{"name":"Tsu","lon":136.52,"lat":34.72,"pop":500000},{"name":"Chiayi","lon":120.44,"lat":23.48,"pop":500000},{"name":"Thái Nguyên","lon":105.83,"lat":21.6,"pop":500000},{"name":"El Minya","lon":30.75,"lat":28.09,"pop":500000},{"name":"Mataram","lon":116.14,"lat":-8.58,"pop":499409},{"name":"Macapá","lon":-51.05,"lat":0.03,"pop":499166},{"name":"Reynosa","lon":-98.3,"lat":26.08,"pop":498654},{"name":"Shahrisabz","lon":66.83,"lat":39.06,"pop":498545},{"name":"Allentown","lon":-75.5,"lat":40.6,"pop":496442},{"name":"Berkeley","lon":-122.27,"lat":37.87,"pop":496356},{"name":"Douma","lon":36.4,"lat":33.58,"pop":496145},{"name":"Songyuan","lon":124.82,"lat":45.18,"pop":495900},{"name":"Skopje","lon":21.43,"lat":42,"pop":494087},{"name":"Mwanza","lon":32.93,"lat":-2.52,"pop":493944},{"name":"Colorado Springs","lon":-104.79,"lat":38.86,"pop":493654},{"name":"Wuwei","lon":102.64,"lat":37.93,"pop":493092},{"name":"Port Sudan","lon":37.22,"lat":19.62,"pop":489725},{"name":"Santa Fe","lon":-60.69,"lat":-31.62,"pop":489505},{"name":"Tula","lon":37.63,"lat":54.2,"pop":489486},{"name":"Beni Suef","lon":31.09,"lat":29.08,"pop":489450},{"name":"Yanji","lon":129.51,"lat":42.88,"pop":488740},{"name":"Bologna","lon":11.34,"lat":44.5,"pop":488172},{"name":"Everett","lon":-122.2,"lat":47.96,"pop":486903},{"name":"Saharanpur","lon":77.55,"lat":29.97,"pop":484873},{"name":"Kalaburagi","lon":76.82,"lat":17.35,"pop":483615},{"name":"Bhatpara","lon":88.41,"lat":22.85,"pop":483129},{"name":"Ife","lon":4.56,"lat":7.48,"pop":482365},{"name":"Feira de Santana","lon":-38.97,"lat":-12.25,"pop":481911},{"name":"Shah Alam","lon":101.55,"lat":3.07,"pop":481654},{"name":"Mariupol","lon":37.56,"lat":47.1,"pop":481626},{"name":"Tuxtla Gutiérrez","lon":-93.15,"lat":16.75,"pop":481128},{"name":"Herat","lon":62.17,"lat":34.33,"pop":481009},{"name":"Homyel","lon":31,"lat":52.43,"pop":480951},{"name":"Zhaoqing","lon":112.45,"lat":23.05,"pop":480000},{"name":"Americana","lon":-47.33,"lat":-22.75,"pop":479472},{"name":"Dhule","lon":74.77,"lat":20.9,"pop":479073},{"name":"Ostrava","lon":18.25,"lat":49.83,"pop":478963},{"name":"Yazd","lon":54.37,"lat":31.92,"pop":477905},{"name":"Hargeisa","lon":44.07,"lat":9.56,"pop":477876},{"name":"Sialkote","lon":74.56,"lat":32.52,"pop":477396},{"name":"Kemerovo","lon":86.09,"lat":55.34,"pop":477090},{"name":"Nazret","lon":39.27,"lat":8.55,"pop":476892},{"name":"Jiaojing","lon":121.45,"lat":28.68,"pop":471500},{"name":"Kuqa","lon":82.94,"lat":41.73,"pop":470600},{"name":"Chaoyang","lon":120.42,"lat":41.55,"pop":470296},{"name":"Juiz de Fora","lon":-43.37,"lat":-21.77,"pop":470193},{"name":"Toledo","lon":-83.55,"lat":41.64,"pop":469924},{"name":"Udaipur","lon":73.73,"lat":24.6,"pop":469737},{"name":"İzmit","lon":29.93,"lat":40.78,"pop":466504},{"name":"Piraeus","lon":23.7,"lat":37.95,"pop":466065},{"name":"Shymkent","lon":69.6,"lat":42.32,"pop":465392},{"name":"Pristina","lon":21.17,"lat":42.67,"pop":465186},{"name":"Iligan","lon":124.22,"lat":8.17,"pop":464599},{"name":"Qazvin","lon":50,"lat":36.27,"pop":464551},{"name":"Bloemfontein","lon":26.23,"lat":-29.12,"pop":463064},{"name":"Calabar","lon":8.33,"lat":4.96,"pop":461796},{"name":"Malatya","lon":38.3,"lat":38.37,"pop":461574},{"name":"Panzhihua","lon":101.73,"lat":26.55,"pop":461513},{"name":"Bandar-e-Abbas","lon":56.27,"lat":27.2,"pop":461499},{"name":"Naberezhnyye Chelny","lon":52.39,"lat":55.73,"pop":461086},{"name":"Hamah","lon":36.73,"lat":35.15,"pop":460602},{"name":"Cranbourne","lon":145.28,"lat":-38.1,"pop":460491},{"name":"Iquitos","lon":-73.25,"lat":-3.75,"pop":458729},{"name":"Mazar-i-Sharif","lon":67.1,"lat":36.7,"pop":458151},{"name":"Leicester","lon":-1.13,"lat":52.63,"pop":457983},{"name":"Kirov","lon":49.67,"lat":58.59,"pop":457437},{"name":"Jingdezhen","lon":117.18,"lat":29.27,"pop":457298},{"name":"Durango","lon":-104.67,"lat":24.03,"pop":457140},{"name":"Jambi","lon":103.61,"lat":-1.59,"pop":457090},{"name":"Volta Redonda","lon":-44.09,"lat":-22.52,"pop":456362},{"name":"Hengshui","lon":115.7,"lat":37.72,"pop":456356},{"name":"Sfax","lon":10.72,"lat":34.75,"pop":453050},{"name":"Sunderland","lon":-1.38,"lat":54.9,"pop":452934},{"name":"Xalapa","lon":-96.92,"lat":19.53,"pop":452186},{"name":"Luhansk","lon":39.33,"lat":48.57,"pop":452000},{"name":"Manado","lon":124.85,"lat":1.48,"pop":451893},{"name":"Qaraghandy","lon":73.12,"lat":49.88,"pop":451800},{"name":"An Nasiriyah","lon":46.27,"lat":31.04,"pop":451547},{"name":"Oshawa","lon":-78.85,"lat":43.88,"pop":450963},{"name":"Qitaihe","lon":131.01,"lat":45.77,"pop":450617},{"name":"Belfast","lon":-5.93,"lat":54.59,"pop":450406},{"name":"Şanlıurfa","lon":38.79,"lat":37.17,"pop":449549},{"name":"Chengde","lon":117.93,"lat":40.96,"pop":449325},{"name":"Xuchang","lon":113.82,"lat":34.02,"pop":449258},{"name":"Chlef","lon":1.32,"lat":36.17,"pop":449167},{"name":"Ōita","lon":131.6,"lat":33.24,"pop":448907},{"name":"Baguio","lon":120.57,"lat":16.43,"pop":447824},{"name":"San Juan","lon":-68.52,"lat":-31.55,"pop":447048},{"name":"Cheboksary","lon":47.25,"lat":56.13,"pop":446781},{"name":"Ado Ekiti","lon":5.22,"lat":7.63,"pop":446749},{"name":"Balikpapan","lon":116.83,"lat":-1.25,"pop":445905},{"name":"Ballari","lon":76.92,"lat":15.15,"pop":445388},{"name":"Bamenda","lon":10.15,"lat":5.96,"pop":445299},{"name":"Gent","lon":3.7,"lat":51.03,"pop":444336},{"name":"Tokushima","lon":134.55,"lat":34.07,"pop":443760},{"name":"Bakersfield","lon":-119.02,"lat":35.37,"pop":443129},{"name":"Wuzhou","lon":111.32,"lat":23.48,"pop":442315},{"name":"Portsmouth","lon":-1.08,"lat":50.8,"pop":442252},{"name":"Cabimas","lon":-71.45,"lat":10.43,"pop":441094},{"name":"Foz do Iguaçu","lon":-54.53,"lat":-25.52,"pop":440455},{"name":"Wakayama","lon":135.17,"lat":34.22,"pop":440006},{"name":"Strasbourg","lon":7.75,"lat":48.58,"pop":439972},{"name":"Mawlamyine","lon":97.67,"lat":16.5,"pop":438861},{"name":"San Cristóbal","lon":-72.25,"lat":7.77,"pop":438798},{"name":"Nantes","lon":-1.59,"lat":47.21,"pop":438537},{"name":"Khujand","lon":69.62,"lat":40.29,"pop":437684},{"name":"Guangyuan","lon":105.87,"lat":32.43,"pop":437435},{"name":"Khomeini Shahr","lon":51.47,"lat":32.7,"pop":437138},{"name":"Garoua","lon":13.39,"lat":9.3,"pop":436899},{"name":"Bukavu","lon":28.84,"lat":-2.51,"pop":436779},{"name":"Tuticorin","lon":78.13,"lat":8.8,"pop":436094},{"name":"Nagasaki","lon":129.89,"lat":32.76,"pop":435455},{"name":"Pohang","lon":129.37,"lat":36.02,"pop":435266},{"name":"Kaliningrad","lon":20.5,"lat":54.7,"pop":434954},{"name":"Laredo","lon":-99.51,"lat":27.51,"pop":434768},{"name":"Likasi","lon":26.78,"lat":-10.97,"pop":434408},{"name":"Spanish Town","lon":-76.95,"lat":17.98,"pop":432704},{"name":"San Luis","lon":-66.35,"lat":-33.3,"pop":432310},{"name":"Katsina","lon":7.6,"lat":12.99,"pop":432149},{"name":"Welkom","lon":26.73,"lat":-27.97,"pop":431944},{"name":"Santa Marta","lon":-74.2,"lat":11.25,"pop":431781},{"name":"Villahermosa","lon":-92.9,"lat":18,"pop":428564},{"name":"Bryansk","lon":34.43,"lat":53.26,"pop":427236},{"name":"Bournemouth","lon":-1.9,"lat":50.73,"pop":426945},{"name":"Bengkulu","lon":102.27,"lat":-3.8,"pop":426673},{"name":"Heidelberg","lon":8.7,"lat":49.42,"pop":426590},{"name":"Kurnool","lon":78.03,"lat":15.83,"pop":424920},{"name":"Chaozhou","lon":116.63,"lat":23.68,"pop":424787},{"name":"Batangas","lon":121.02,"lat":13.78,"pop":424508},{"name":"Bratislava","lon":17.12,"lat":48.15,"pop":423737},{"name":"Gaya","lon":85,"lat":24.8,"pop":423692},{"name":"Arak","lon":3.75,"lat":25.28,"pop":423251},{"name":"Baton Rouge","lon":-91.14,"lat":30.46,"pop":422072},{"name":"Springfield","lon":-72.58,"lat":42.12,"pop":421780},{"name":"Ibagué","lon":-75.23,"lat":4.44,"pop":421685},{"name":"Ivanovo","lon":41.01,"lat":57.01,"pop":420839},{"name":"Erzurum","lon":41.29,"lat":39.92,"pop":420691},{"name":"Akure","lon":5.2,"lat":7.25,"pop":420594},{"name":"Asyut","lon":31.18,"lat":27.19,"pop":420585},{"name":"Kolwezi","lon":25.47,"lat":-10.72,"pop":418000},{"name":"Sukkur","lon":68.85,"lat":27.71,"pop":417767},{"name":"Luohe","lon":114.03,"lat":33.57,"pop":417356},{"name":"Campina Grande","lon":-35.88,"lat":-7.23,"pop":417261},{"name":"Kitchener","lon":-80.5,"lat":43.45,"pop":417001},{"name":"Middlesbrough","lon":-1.23,"lat":54.58,"pop":416042},{"name":"Meizhou","lon":116.12,"lat":24.3,"pop":414930},{"name":"Ardabil","lon":48.3,"lat":38.25,"pop":414603},{"name":"Magnitogorsk","lon":58.98,"lat":53.42,"pop":413351},{"name":"Gifu","lon":136.76,"lat":35.42,"pop":412895},{"name":"Huancayo","lon":-75.2,"lat":-12.08,"pop":412733},{"name":"Charleston","lon":-79.99,"lat":32.79,"pop":411940},{"name":"Nha Trang","lon":109.17,"lat":12.25,"pop":411556},{"name":"Maturín","lon":-63.17,"lat":9.75,"pop":410972},{"name":"Xuanhua","lon":115.02,"lat":40.59,"pop":409745},{"name":"Kursk","lon":36.19,"lat":51.74,"pop":409431},{"name":"Oujda","lon":-1.91,"lat":34.69,"pop":409391},{"name":"Metz","lon":6.18,"lat":49.12,"pop":409186},{"name":"Hotan","lon":79.93,"lat":37.1,"pop":408894},{"name":"Al Ayn","lon":55.74,"lat":24.23,"pop":408733},{"name":"Jeju","lon":126.52,"lat":33.51,"pop":408364},{"name":"Oshogbo","lon":4.56,"lat":7.77,"pop":408245},{"name":"Ipatinga","lon":-42.52,"lat":-19.48,"pop":407894},{"name":"Szczecin","lon":14.53,"lat":53.42,"pop":407811},{"name":"Miami Beach","lon":-80.13,"lat":25.81,"pop":407750},{"name":"Murcia","lon":-1.13,"lat":37.98,"pop":406807},{"name":"Tanta","lon":31,"lat":30.79,"pop":404901},{"name":"Kitwe","lon":28.22,"lat":-12.81,"pop":404901},{"name":"Zanzibar","lon":39.2,"lat":-6.16,"pop":403658},{"name":"Taubaté","lon":-45.56,"lat":-23.02,"pop":403560},{"name":"Bissau","lon":-15.6,"lat":11.87,"pop":403339},{"name":"Pasay City","lon":121,"lat":14.55,"pop":403064},{"name":"Mbale","lon":34.17,"lat":1.09,"pop":402368},{"name":"Wichita","lon":-97.33,"lat":37.68,"pop":401843},{"name":"Kassala","lon":36.39,"lat":15.46,"pop":401477},{"name":"Sunchon","lon":125.94,"lat":39.42,"pop":400629},{"name":"Tver","lon":35.89,"lat":56.86,"pop":400212},{"name":"Jingmen","lon":112.2,"lat":31.03,"pop":400000},{"name":"Sikar","lon":75.14,"lat":27.61,"pop":400000},{"name":"Surgut","lon":73.43,"lat":61.26,"pop":400000},{"name":"Tumakuru","lon":77.1,"lat":13.33,"pop":399606},{"name":"Gómez Palacio","lon":-103.5,"lat":25.57,"pop":399328},{"name":"Buraydah","lon":43.96,"lat":26.37,"pop":398581},{"name":"Khmelnytskyy","lon":27,"lat":49.42,"pop":398346},{"name":"Columbia","lon":-92.33,"lat":38.95,"pop":398093},{"name":"Columbia","lon":-81.03,"lat":34,"pop":398093},{"name":"Eindhoven","lon":5.5,"lat":51.43,"pop":398053},{"name":"Chiang Mai","lon":98.98,"lat":18.8,"pop":397211},{"name":"Piura","lon":-80.63,"lat":-5.21,"pop":396932},{"name":"Horlivka","lon":38.05,"lat":48.3,"pop":396885},{"name":"Ndola","lon":28.65,"lat":-13,"pop":396339},{"name":"Yuxi","lon":102.57,"lat":24.38,"pop":396325},{"name":"Kisumu","lon":34.75,"lat":-0.09,"pop":395615},{"name":"Metairie","lon":-90.15,"lat":29.98,"pop":394206},{"name":"Kollam","lon":76.57,"lat":8.9,"pop":394163},{"name":"Tallinn","lon":24.73,"lat":59.43,"pop":394024},{"name":"Wellington","lon":174.78,"lat":-41.29,"pop":393400},{"name":"Al-Ubayyid","lon":30.22,"lat":13.18,"pop":393311},{"name":"Nyala","lon":24.89,"lat":12.06,"pop":392373},{"name":"Sandakan","lon":118.11,"lat":5.84,"pop":392288},{"name":"Ahmednagar","lon":74.75,"lat":19.08,"pop":391760},{"name":"Osh","lon":72.79,"lat":40.54,"pop":391277},{"name":"Stoke","lon":-2.18,"lat":53,"pop":390801},{"name":"Palm Springs","lon":-116.53,"lat":33.78,"pop":390115},{"name":"Bhilwara","lon":74.64,"lat":25.35,"pop":389911},{"name":"Elgin","lon":-88.29,"lat":42.04,"pop":389514},{"name":"Comilla","lon":91.17,"lat":23.47,"pop":389411},{"name":"Samut Prakan","lon":100.61,"lat":13.61,"pop":388920},{"name":"Greensboro","lon":-79.8,"lat":36.07,"pop":388887},{"name":"Grenoble","lon":5.72,"lat":45.18,"pop":388574},{"name":"Nampula","lon":39.29,"lat":-15.14,"pop":388526},{"name":"Nizamabad","lon":78.1,"lat":18.67,"pop":388505},{"name":"Granada‎","lon":-3.59,"lat":37.16,"pop":388290},{"name":"Brno","lon":16.61,"lat":49.2,"pop":388277},{"name":"Coventry","lon":-1.5,"lat":52.4,"pop":388271},{"name":"Alajuela","lon":-84.23,"lat":10.02,"pop":387743},{"name":"Iloilo","lon":122.55,"lat":10.71,"pop":387681},{"name":"Campos","lon":-41.32,"lat":-21.75,"pop":387417},{"name":"Resistencia","lon":-58.99,"lat":-27.46,"pop":387158},{"name":"Baicheng","lon":122.82,"lat":45.62,"pop":386861},{"name":"Qarshi","lon":65.8,"lat":38.87,"pop":386361},{"name":"Misrata","lon":15.1,"lat":32.38,"pop":386120},{"name":"Hail","lon":41.7,"lat":27.52,"pop":385257},{"name":"Béjaïa","lon":5.07,"lat":36.76,"pop":384937},{"name":"Southampton","lon":-1.4,"lat":50.9,"pop":384417},{"name":"Celaya","lon":-100.8,"lat":20.53,"pop":383697},{"name":"Pasto","lon":-77.28,"lat":1.21,"pop":382236},{"name":"Caxias do Sul","lon":-51.17,"lat":-29.18,"pop":381270},{"name":"Nizhny Tagil","lon":59.97,"lat":57.92,"pop":381116},{"name":"Des Moines","lon":-93.62,"lat":41.58,"pop":380655},{"name":"Xichang","lon":102.3,"lat":27.88,"pop":379993},{"name":"Dezhou","lon":116.3,"lat":37.45,"pop":379555},{"name":"Sevastopol","lon":33.52,"lat":44.6,"pop":379200},{"name":"Vigo","lon":-8.73,"lat":42.22,"pop":378952},{"name":"Las Palmas","lon":-15.43,"lat":28.1,"pop":378495},{"name":"Parbhani","lon":76.76,"lat":19.27,"pop":378326},{"name":"Karlsruhe","lon":8.4,"lat":49,"pop":377487},{"name":"Ogden","lon":-111.97,"lat":41.23,"pop":377224},{"name":"Zhoukou","lon":114.63,"lat":33.63,"pop":377061},{"name":"Makiyivka","lon":37.97,"lat":48.03,"pop":376610},{"name":"Putian","lon":119.02,"lat":25.43,"pop":376558},{"name":"Kahramanmaraş","lon":36.95,"lat":37.61,"pop":376045},{"name":"Manizales","lon":-75.52,"lat":5.06,"pop":375848},{"name":"Palma","lon":2.65,"lat":39.57,"pop":375773},{"name":"Manukau","lon":174.88,"lat":-37,"pop":375600},{"name":"Shillong","lon":91.88,"lat":25.57,"pop":375527},{"name":"Khorramabad","lon":48.35,"lat":33.48,"pop":375198},{"name":"Villavicencio","lon":-73.63,"lat":4.15,"pop":374763},{"name":"São José do Rio Preto","lon":-49.39,"lat":-20.8,"pop":374699},{"name":"Kaunas","lon":23.88,"lat":54.95,"pop":374643},{"name":"Latur","lon":76.57,"lat":18.4,"pop":374394},{"name":"Seremban","lon":101.94,"lat":2.71,"pop":372917},{"name":"Denizli","lon":29.08,"lat":37.77,"pop":372344},{"name":"Van","lon":43.4,"lat":38.5,"pop":371713},{"name":"La Coruña","lon":-8.42,"lat":43.33,"pop":370610},{"name":"Abadan","lon":48.28,"lat":30.33,"pop":370180},{"name":"Quzhou","lon":118.87,"lat":28.97,"pop":370000},{"name":"Rajapalaiyam","lon":77.58,"lat":9.42,"pop":369991},{"name":"Reading","lon":-0.98,"lat":51.47,"pop":369804},{"name":"Najran","lon":44.13,"lat":17.51,"pop":369609},{"name":"Mahilyow","lon":30.32,"lat":53.9,"pop":369200},{"name":"Al-Qatif","lon":50.01,"lat":26.52,"pop":368892},{"name":"Valletta","lon":14.51,"lat":35.9,"pop":368250},{"name":"Mazatlán","lon":-106.42,"lat":23.22,"pop":368204},{"name":"Longyan","lon":117,"lat":25.07,"pop":367896},{"name":"Hampton","lon":-76.35,"lat":37.03,"pop":366766},{"name":"Trenton","lon":-74.74,"lat":40.22,"pop":366513},{"name":"Bydgoszcz","lon":18.01,"lat":53.12,"pop":366452},{"name":"Kuantan","lon":103.32,"lat":3.83,"pop":366229},{"name":"Gorontalo","lon":123.07,"lat":0.55,"pop":365497},{"name":"Nakuru","lon":36.07,"lat":-0.28,"pop":364727},{"name":"Vladikavkaz","lon":44.67,"lat":43.05,"pop":364630},{"name":"Larkana","lon":68.21,"lat":27.56,"pop":364033},{"name":"McAllen","lon":-98.23,"lat":26.2,"pop":364004},{"name":"Christchurch","lon":172.63,"lat":-43.54,"pop":363200},{"name":"Stavropol","lon":41.98,"lat":45.05,"pop":363064},{"name":"Sanya","lon":109.5,"lat":18.26,"pop":362689},{"name":"Bhagalpur","lon":86.98,"lat":25.23,"pop":361548},{"name":"Maseru","lon":27.48,"lat":-29.32,"pop":361324},{"name":"Sheikhu Pura","lon":73.99,"lat":31.72,"pop":361303},{"name":"Cusco","lon":-71.97,"lat":-13.53,"pop":361182},{"name":"Tamale","lon":-0.84,"lat":9.4,"pop":360579},{"name":"St. Charles","lon":-90.51,"lat":38.78,"pop":360485},{"name":"Ulan-Ude","lon":107.62,"lat":51.82,"pop":360278},{"name":"Bobo Dioulasso","lon":-4.29,"lat":11.18,"pop":360106},{"name":"Lublin","lon":22.57,"lat":51.25,"pop":360044},{"name":"Halifax","lon":-63.6,"lat":44.65,"pop":359111},{"name":"Augsburg","lon":10.9,"lat":48.35,"pop":358989},{"name":"Sungai Petani","lon":100.48,"lat":5.65,"pop":358499},{"name":"Ad Diwaniyah","lon":44.92,"lat":31.99,"pop":358408},{"name":"Taraz","lon":71.36,"lat":42.9,"pop":358153},{"name":"Simferopol","lon":34.1,"lat":44.95,"pop":358108},{"name":"Toulon","lon":5.92,"lat":43.13,"pop":357693},{"name":"Zanjan","lon":48.5,"lat":36.67,"pop":357471},{"name":"San Sebastián","lon":-1.98,"lat":43.32,"pop":357468},{"name":"Iwaki","lon":140.89,"lat":37.06,"pop":357309},{"name":"Encarnación","lon":-55.87,"lat":-27.35,"pop":357119},{"name":"Posadas","lon":-55.89,"lat":-27.36,"pop":357119},{"name":"Provo","lon":-111.64,"lat":40.25,"pop":356712},{"name":"Cà Mau","lon":105.15,"lat":9.18,"pop":356636},{"name":"Asahikawa","lon":142.38,"lat":43.76,"pop":356612},{"name":"Mirpur Khas","lon":69.01,"lat":25.53,"pop":356435},{"name":"Archangel","lon":40.55,"lat":64.57,"pop":356051},{"name":"Wafangdian","lon":122,"lat":39.63,"pop":355844},{"name":"Ambon","lon":128.2,"lat":-3.72,"pop":355596},{"name":"Orizaba","lon":-97.13,"lat":18.85,"pop":355333},{"name":"Longxi","lon":104.67,"lat":35,"pop":355037},{"name":"Santiago del Estero","lon":-64.27,"lat":-27.78,"pop":354692},{"name":"Mito","lon":140.48,"lat":36.37,"pop":353892},{"name":"Safi","lon":-9.24,"lat":32.32,"pop":353476},{"name":"Eldoret","lon":35.27,"lat":0.52,"pop":353381},{"name":"Rahim Yar Khan","lon":70.3,"lat":28.42,"pop":353203},{"name":"Neiva","lon":-75.33,"lat":2.93,"pop":352855},{"name":"Vinnytsya","lon":28.48,"lat":49.23,"pop":352115},{"name":"Greenville","lon":-82.39,"lat":34.85,"pop":350954},{"name":"Hualien","lon":121.6,"lat":23.98,"pop":350468},{"name":"Kuala Terengganu","lon":103.12,"lat":5.33,"pop":350210},{"name":"Evanston","lon":-87.7,"lat":42.05,"pop":350000},{"name":"Yumen","lon":97.73,"lat":39.83,"pop":350000},{"name":"Aurora","lon":-88.3,"lat":41.77,"pop":350000},{"name":"Qoqon","lon":70.94,"lat":40.54,"pop":350000},{"name":"Việt Trì","lon":105.43,"lat":21.33,"pop":350000},{"name":"Long Xuyen","lon":105.42,"lat":10.38,"pop":350000},{"name":"Haarlem","lon":4.63,"lat":52.38,"pop":349957},{"name":"Buon Me Thuot","lon":108.05,"lat":12.67,"pop":349945},{"name":"Chimbote","lon":-78.57,"lat":-9.07,"pop":349846},{"name":"Muzaffarnagar","lon":77.7,"lat":29.49,"pop":349706},{"name":"Nuevo Laredo","lon":-99.55,"lat":27.5,"pop":349550},{"name":"Sanandaj","lon":47.02,"lat":35.3,"pop":349176},{"name":"Linz","lon":14.29,"lat":48.32,"pop":349161},{"name":"Mbombela","lon":30.98,"lat":-25.47,"pop":348138},{"name":"Spokane","lon":-117.42,"lat":47.67,"pop":347705},{"name":"Camagüey","lon":-77.92,"lat":21.38,"pop":347562},{"name":"Verona","lon":10.99,"lat":45.44,"pop":347459},{"name":"London","lon":-81.25,"lat":42.97,"pop":346765},{"name":"Nur-Sultan","lon":71.43,"lat":51.18,"pop":345604},{"name":"Mérida","lon":-71.18,"lat":8.57,"pop":345489},{"name":"Charleroi","lon":4.45,"lat":50.42,"pop":345367},{"name":"Belgorod","lon":36.6,"lat":50.63,"pop":345289},{"name":"Kosti","lon":32.66,"lat":13.17,"pop":345068},{"name":"Al Amarah","lon":47.15,"lat":31.84,"pop":345007},{"name":"Maebashi","lon":139.07,"lat":36.39,"pop":344871},{"name":"Kurgan","lon":65.34,"lat":55.46,"pop":343129},{"name":"Kohat","lon":71.43,"lat":33.6,"pop":343027},{"name":"Vitsyebsk","lon":30.19,"lat":55.19,"pop":342700},{"name":"Piracicaba","lon":-47.64,"lat":-22.73,"pop":342209},{"name":"Yeosu","lon":127.75,"lat":34.74,"pop":341994},{"name":"Jhang","lon":72.32,"lat":31.28,"pop":341210},{"name":"Pematangsiantar","lon":99.06,"lat":2.96,"pop":341200},{"name":"Arusha","lon":36.67,"lat":-3.36,"pop":341136},{"name":"Corrientes","lon":-58.81,"lat":-27.49,"pop":340823},{"name":"Kōriyama","lon":140.38,"lat":37.41,"pop":340560},{"name":"Plovdiv","lon":24.75,"lat":42.15,"pop":340494},{"name":"Chitungwiza","lon":31.1,"lat":-18,"pop":340360},{"name":"Yaan","lon":103.08,"lat":29.98,"pop":340000},{"name":"Tieling","lon":123.82,"lat":42.3,"pop":340000},{"name":"Irapuato","lon":-101.35,"lat":20.68,"pop":339554},{"name":"Kaluga","lon":36.27,"lat":54.52,"pop":338978},{"name":"East London","lon":27.87,"lat":-32.97,"pop":338627},{"name":"Kaesong","lon":126.56,"lat":37.96,"pop":338155},{"name":"Boise","lon":-116.23,"lat":43.61,"pop":338071},{"name":"Ciudad Bolívar","lon":-63.6,"lat":8.1,"pop":338000},{"name":"Kawagoe","lon":139.49,"lat":35.92,"pop":337931},{"name":"Lalitpur","lon":85.33,"lat":27.67,"pop":337785},{"name":"Phan Thiet","lon":108.1,"lat":10.93,"pop":336846},{"name":"Alor Setar","lon":100.37,"lat":6.11,"pop":336475},{"name":"Santa Cruz de Tenerife","lon":-16.25,"lat":28.47,"pop":336061},{"name":"Gijón","lon":-5.67,"lat":43.53,"pop":335972},{"name":"Kōchi","lon":133.54,"lat":33.56,"pop":335570},{"name":"Salem","lon":-70.88,"lat":42.52,"pop":335509},{"name":"Bauru","lon":-49.08,"lat":-22.33,"pop":335024},{"name":"Nakhon Ratchasima","lon":102.1,"lat":15,"pop":334984},{"name":"Orel","lon":36.07,"lat":52.97,"pop":334552},{"name":"Takamatsu","lon":134.04,"lat":34.34,"pop":334223},{"name":"Sanford","lon":-81.28,"lat":28.79,"pop":333460},{"name":"Muzaffarpur","lon":85.38,"lat":26.12,"pop":333200},{"name":"Beni","lon":29.45,"lat":0.49,"pop":332903},{"name":"Toyama","lon":137.23,"lat":36.7,"pop":332812},{"name":"Hangu","lon":117.78,"lat":39.23,"pop":332793},{"name":"Medani","lon":33.52,"lat":14.4,"pop":332714},{"name":"Montes Claros","lon":-43.86,"lat":-16.72,"pop":332379},{"name":"Bielefeld","lon":8.53,"lat":52.03,"pop":331906},{"name":"Bujumbura","lon":29.36,"lat":-3.38,"pop":331700},{"name":"Heyuan","lon":114.68,"lat":23.73,"pop":330961},{"name":"Mathura","lon":77.67,"lat":27.5,"pop":330511},{"name":"Mymensingh","lon":90.38,"lat":24.75,"pop":330126},{"name":"Baishan","lon":126.43,"lat":41.9,"pop":330000},{"name":"Patiala","lon":76.38,"lat":30.32,"pop":329224},{"name":"Wonsan","lon":127.43,"lat":39.16,"pop":329207},{"name":"Pavlodar","lon":76.95,"lat":52.3,"pop":329002},{"name":"Reno","lon":-119.82,"lat":39.53,"pop":328585},{"name":"Maringá","lon":-51.93,"lat":-23.41,"pop":328335},{"name":"Sagar","lon":78.75,"lat":23.85,"pop":328240},{"name":"Canberra","lon":149.13,"lat":-35.28,"pop":327700},{"name":"Sochi","lon":39.73,"lat":43.59,"pop":327608},{"name":"Madison","lon":-89.4,"lat":43.07,"pop":327447},{"name":"Montpellier","lon":3.87,"lat":43.61,"pop":327254},{"name":"Itajaí","lon":-48.68,"lat":-26.9,"pop":327126},{"name":"Sousse","lon":10.63,"lat":35.83,"pop":327004},{"name":"Iași","lon":27.57,"lat":47.17,"pop":325914},{"name":"Brahmapur","lon":84.8,"lat":19.32,"pop":324726},{"name":"Birjand","lon":59.22,"lat":32.88,"pop":324703},{"name":"Yoshkar Ola","lon":47.87,"lat":56.64,"pop":324406},{"name":"Miyazaki","lon":131.42,"lat":31.92,"pop":324384},{"name":"Modesto","lon":-120.99,"lat":37.66,"pop":323386},{"name":"Volzhskiy","lon":44.77,"lat":48.79,"pop":323293},{"name":"Chenzhou","lon":113.03,"lat":25.8,"pop":322997},{"name":"Valladolid","lon":-4.75,"lat":41.65,"pop":322304},{"name":"Al Kut","lon":45.83,"lat":32.49,"pop":321521},{"name":"Córdoba","lon":-4.77,"lat":37.88,"pop":321376},{"name":"Smolensk","lon":32.05,"lat":54.78,"pop":320991},{"name":"Ciudad del Este","lon":-54.62,"lat":-25.52,"pop":320872},{"name":"Pelotas","lon":-52.33,"lat":-31.75,"pop":320674},{"name":"Podolsk","lon":37.53,"lat":55.38,"pop":320635},{"name":"Kherson","lon":32.6,"lat":46.63,"pop":320477},{"name":"Shahjahanpur","lon":79.91,"lat":27.88,"pop":320434},{"name":"Itu","lon":-47.3,"lat":-23.26,"pop":320170},{"name":"Legazpi","lon":123.75,"lat":13.17,"pop":320081},{"name":"Akita","lon":140.09,"lat":39.71,"pop":320069},{"name":"Maroua","lon":14.32,"lat":10.6,"pop":319941},{"name":"Anápolis","lon":-48.96,"lat":-16.32,"pop":319587},{"name":"Pachuca","lon":-98.74,"lat":20.11,"pop":319581},{"name":"Bukhara","lon":64.43,"lat":39.78,"pop":319476},{"name":"Murmansk","lon":33.1,"lat":68.97,"pop":319263},{"name":"Windsor","lon":-83.04,"lat":42.32,"pop":319246},{"name":"Holguín","lon":-76.26,"lat":20.89,"pop":319102},{"name":"Oskemen","lon":82.61,"lat":49.99,"pop":319067},{"name":"Tepic","lon":-104.88,"lat":21.51,"pop":318781},{"name":"Vladimir","lon":40.41,"lat":56.13,"pop":318648},{"name":"Hat Yai","lon":100.47,"lat":7,"pop":317954},{"name":"Poltava","lon":34.57,"lat":49.57,"pop":317847},{"name":"New Delhi","lon":77.2,"lat":28.6,"pop":317797},{"name":"Cumaná","lon":-64.18,"lat":10.45,"pop":317603},{"name":"Hrodna","lon":23.83,"lat":53.68,"pop":317365},{"name":"Rohtak","lon":76.58,"lat":28.9,"pop":317245},{"name":"El Faiyum","lon":30.84,"lat":29.31,"pop":316772},{"name":"Cluj-Napoca","lon":23.6,"lat":46.79,"pop":316748},{"name":"Bauchi","lon":9.84,"lat":10.31,"pop":316149},{"name":"Alicante","lon":-0.48,"lat":38.35,"pop":315863},{"name":"Dezful","lon":48.47,"lat":32.38,"pop":315482},{"name":"Maiquetía","lon":-66.97,"lat":10.6,"pop":315442},{"name":"Armenia","lon":-75.68,"lat":4.53,"pop":315328},{"name":"Timișoara","lon":21.22,"lat":45.76,"pop":315053},{"name":"Ljubljana","lon":14.51,"lat":46.06,"pop":314807},{"name":"Pescara","lon":14.22,"lat":42.46,"pop":314789},{"name":"Gdynia","lon":18.53,"lat":54.52,"pop":314664},{"name":"Angeles","lon":120.55,"lat":15.15,"pop":314493},{"name":"Ninde","lon":119.53,"lat":26.68,"pop":314077},{"name":"Aswan","lon":32.9,"lat":24.09,"pop":313442},{"name":"Varna","lon":27.9,"lat":43.22,"pop":312770},{"name":"Koblenz","lon":7.6,"lat":50.35,"pop":312633},{"name":"Youngstown","lon":-80.65,"lat":41.1,"pop":311990},{"name":"Cherepovets","lon":37.91,"lat":59.14,"pop":311850},{"name":"Qurghonteppa","lon":68.77,"lat":37.84,"pop":311574},{"name":"Semey","lon":80.28,"lat":50.43,"pop":311353},{"name":"Galați","lon":28.05,"lat":45.46,"pop":311156},{"name":"Brașov","lon":25.61,"lat":45.65,"pop":311044},{"name":"Sambalpur","lon":83.97,"lat":21.47,"pop":310852},{"name":"Pucallpa","lon":-74.53,"lat":-8.37,"pop":310750},{"name":"Antofagasta","lon":-70.4,"lat":-23.65,"pop":309832},{"name":"Durham","lon":-78.92,"lat":36,"pop":309495},{"name":"Sapele","lon":5.68,"lat":5.89,"pop":309162},{"name":"Dayr az Zawr","lon":40.13,"lat":35.33,"pop":309141},{"name":"Chita","lon":113.47,"lat":52.06,"pop":308500},{"name":"Valledupar","lon":-73.25,"lat":10.48,"pop":308237},{"name":"Vitória da Conquista","lon":-40.84,"lat":-14.85,"pop":308204},{"name":"Antsirabe","lon":47.03,"lat":-19.85,"pop":307921},{"name":"Nalchik","lon":43.62,"lat":43.5,"pop":307866},{"name":"Chernihiv","lon":31.3,"lat":51.5,"pop":307684},{"name":"Ratlam","lon":75.03,"lat":23.35,"pop":307229},{"name":"Ksar El Kebir","lon":-5.91,"lat":35.02,"pop":306600},{"name":"Tawau","lon":117.9,"lat":4.27,"pop":306462},{"name":"Firozabad","lon":78.39,"lat":27.15,"pop":306409},{"name":"Porto Velho","lon":-63.9,"lat":-8.75,"pop":306180},{"name":"San Salvador de Jujuy","lon":-65.3,"lat":-24.18,"pop":305891},{"name":"Franca","lon":-47.39,"lat":-20.53,"pop":305041},{"name":"Rajahmundry","lon":81.79,"lat":17.03,"pop":304804},{"name":"Olongapo","lon":120.28,"lat":14.83,"pop":304388},{"name":"Craiova","lon":23.83,"lat":44.33,"pop":304142},{"name":"Kom Ombo","lon":32.95,"lat":24.47,"pop":303962},{"name":"Los Teques","lon":-67.02,"lat":10.42,"pop":303470},{"name":"Constanța","lon":28.61,"lat":44.2,"pop":303399},{"name":"Saransk","lon":45.18,"lat":54.17,"pop":303394},{"name":"Mengzi","lon":103.41,"lat":23.36,"pop":303341},{"name":"Ganca","lon":46.35,"lat":40.68,"pop":303268},{"name":"Hakodate","lon":140.74,"lat":41.79,"pop":302984},{"name":"Chemnitz","lon":12.92,"lat":50.83,"pop":302643},{"name":"Kingston upon Hull","lon":-0.33,"lat":53.75,"pop":302296},{"name":"Batman","lon":41.14,"lat":37.89,"pop":302074},{"name":"Qena","lon":32.72,"lat":26.15,"pop":302027},{"name":"Barddhaman","lon":87.86,"lat":23.25,"pop":301725},{"name":"Jinja","lon":33.2,"lat":0.44,"pop":301619},{"name":"Gujrat","lon":74.08,"lat":32.58,"pop":301506},{"name":"Tambov","lon":41.43,"lat":52.73,"pop":301482},{"name":"Brest","lon":23.7,"lat":52.1,"pop":300715},{"name":"Mardan","lon":72.04,"lat":34.2,"pop":300424},{"name":"Bidar","lon":77.52,"lat":17.92,"pop":300136},{"name":"Rạch Giá","lon":105.09,"lat":10.02,"pop":300000},{"name":"Sóc Trăng","lon":105.98,"lat":9.6,"pop":300000},{"name":"Qyzylorda","lon":65.46,"lat":44.8,"pop":300000},{"name":"Porto-Novo","lon":2.62,"lat":6.48,"pop":300000},{"name":"Curepipe","lon":57.52,"lat":-20.32,"pop":299975},{"name":"Fort Wayne","lon":-85.13,"lat":41.08,"pop":299871},{"name":"Kanggye","lon":126.6,"lat":40.97,"pop":299514},{"name":"Baqubah","lon":44.66,"lat":33.75,"pop":299479},{"name":"Dumyat","lon":31.82,"lat":31.42,"pop":299459},{"name":"Jember","lon":113.69,"lat":-8.17,"pop":298585},{"name":"Al Mubarraz","lon":49.57,"lat":25.43,"pop":298562},{"name":"Al Kharj","lon":47.31,"lat":24.16,"pop":298428},{"name":"Aomori","lon":140.71,"lat":40.83,"pop":298394},{"name":"Chernivtsi","lon":25.92,"lat":48.31,"pop":298251},{"name":"İskenderun","lon":36.17,"lat":36.58,"pop":297943},{"name":"Cherkasy","lon":32.07,"lat":49.43,"pop":297568},{"name":"Riverside","lon":-117.4,"lat":33.94,"pop":297554},{"name":"Bandar Seri Begawan","lon":114.93,"lat":4.88,"pop":296500},{"name":"Rampur","lon":79.02,"lat":28.82,"pop":296418},{"name":"Flint","lon":-83.69,"lat":43.01,"pop":295212},{"name":"Morioka","lon":141.13,"lat":39.72,"pop":295172},{"name":"Ar Ramadi","lon":43.3,"lat":33.42,"pop":295121},{"name":"Port-of-Spain","lon":-61.52,"lat":10.65,"pop":294934},{"name":"Vologda","lon":39.92,"lat":59.21,"pop":294889},{"name":"Sumy","lon":34.78,"lat":50.92,"pop":294456},{"name":"Swansea","lon":-3.95,"lat":51.63,"pop":294339},{"name":"Fukushima","lon":140.47,"lat":37.74,"pop":294237},{"name":"Blumenau","lon":-49.09,"lat":-26.92,"pop":293949},{"name":"Thiès","lon":-16.93,"lat":14.81,"pop":293001},{"name":"Kakinada","lon":82.24,"lat":16.97,"pop":292923},{"name":"Panipat","lon":76.97,"lat":29.4,"pop":292808},{"name":"Makurdi","lon":8.53,"lat":7.73,"pop":292645},{"name":"Ponta Grossa","lon":-50.16,"lat":-25.09,"pop":292177},{"name":"Minna","lon":6.55,"lat":9.62,"pop":291905},{"name":"Białystok","lon":23.18,"lat":53.13,"pop":291855},{"name":"Mbeya","lon":33.43,"lat":-8.89,"pop":291649},{"name":"Cagliari","lon":9.1,"lat":39.22,"pop":291511},{"name":"Mayagüez","lon":-67.14,"lat":18.2,"pop":291339},{"name":"Khammam","lon":80.16,"lat":17.28,"pop":290839},{"name":"Bafoussam","lon":10.41,"lat":5.49,"pop":290768},{"name":"Kasur","lon":74.46,"lat":31.13,"pop":290643},{"name":"Hulan Ergi","lon":123.61,"lat":47.21,"pop":289999},{"name":"Kassel","lon":9.5,"lat":51.3,"pop":289924},{"name":"Limeira","lon":-47.4,"lat":-22.57,"pop":289665},{"name":"Victoria","lon":-123.35,"lat":48.43,"pop":289625},{"name":"Bhuj","lon":69.67,"lat":23.23,"pop":289429},{"name":"Huizhou","lon":114.4,"lat":23.08,"pop":289201},{"name":"Karimnagar","lon":79.11,"lat":18.46,"pop":288251},{"name":"Sinuiju","lon":124.42,"lat":40.09,"pop":288112},{"name":"Talcahuano","lon":-73.12,"lat":-36.72,"pop":288074},{"name":"Ciudad Obregon","lon":-109.92,"lat":27.47,"pop":288002},{"name":"Worcester","lon":-71.8,"lat":42.27,"pop":287365},{"name":"Coatzacoalcos","lon":-94.42,"lat":18.12,"pop":287285},{"name":"Tirupati","lon":79.42,"lat":13.65,"pop":287035},{"name":"Cuenca","lon":-79,"lat":-2.9,"pop":286878},{"name":"Sakarya","lon":30.4,"lat":40.77,"pop":286787},{"name":"Barlett","lon":-89.84,"lat":35.22,"pop":286423},{"name":"Butembo","lon":29.28,"lat":0.13,"pop":286403},{"name":"Sekondi","lon":-1.7,"lat":4.94,"pop":286248},{"name":"Petrópolis","lon":-43.2,"lat":-22.51,"pop":286071},{"name":"Hosapete","lon":76.38,"lat":15.28,"pop":286007},{"name":"Rangpur","lon":89.28,"lat":25.75,"pop":285564},{"name":"Zagazig","lon":31.52,"lat":30.58,"pop":285097},{"name":"Mandya","lon":76.92,"lat":12.57,"pop":285034},{"name":"Bago","lon":96.51,"lat":17.32,"pop":284318},{"name":"Barinas","lon":-70.25,"lat":8.6,"pop":284289},{"name":"Port Moresby","lon":147.19,"lat":-9.46,"pop":283733},{"name":"Iksan","lon":126.95,"lat":35.94,"pop":283501},{"name":"Alwar","lon":76.6,"lat":27.55,"pop":283228},{"name":"Cadiz","lon":123.31,"lat":10.96,"pop":283157},{"name":"Cádiz","lon":-6.29,"lat":36.52,"pop":283157},{"name":"Aizawl","lon":92.72,"lat":23.71,"pop":283021},{"name":"Kupang","lon":123.58,"lat":-10.18,"pop":282396},{"name":"Tongchuan","lon":109.03,"lat":35.08,"pop":282258},{"name":"Zhytomyr","lon":28.66,"lat":50.25,"pop":282192},{"name":"Jining","lon":113.08,"lat":41.03,"pop":281716},{"name":"Winston-Salem","lon":-80.26,"lat":36.11,"pop":281683},{"name":"Bahía Blanca","lon":-62.27,"lat":-38.74,"pop":281536},{"name":"Cap-Haïtien","lon":-72.21,"lat":19.76,"pop":281487},{"name":"Ambato","lon":-78.62,"lat":-1.27,"pop":281425},{"name":"Gorgan","lon":54.48,"lat":36.83,"pop":281023},{"name":"Batna","lon":6.17,"lat":35.57,"pop":280798},{"name":"Al Khalil","lon":35.1,"lat":31.54,"pop":280321},{"name":"Newark","lon":-74.17,"lat":40.7,"pop":280123},{"name":"Tacna","lon":-70.25,"lat":-18,"pop":280098},{"name":"Tacloban","lon":125,"lat":11.25,"pop":280006},{"name":"Lansing","lon":-84.55,"lat":42.73,"pop":279952},{"name":"Xinzhou","lon":112.72,"lat":38.41,"pop":279607},{"name":"Cotabato","lon":124.25,"lat":7.22,"pop":279519},{"name":"Rize","lon":40.52,"lat":41.02,"pop":279450},{"name":"Ica","lon":-75.73,"lat":-14.07,"pop":279420},{"name":"Sumqayt","lon":49.63,"lat":40.58,"pop":279159},{"name":"Taganrog","lon":38.92,"lat":47.23,"pop":279056},{"name":"Kaolack","lon":-16.1,"lat":14.15,"pop":277812},{"name":"Kostroma","lon":40.94,"lat":57.77,"pop":277656},{"name":"Corpus Christi","lon":-97.4,"lat":27.74,"pop":277454},{"name":"Owo","lon":5.59,"lat":7.2,"pop":276574},{"name":"Sukabumi","lon":106.9,"lat":-6.91,"pop":276414},{"name":"Komsomolsk na Amure","lon":137.02,"lat":50.55,"pop":275908},{"name":"Prokopyevsk","lon":86.71,"lat":53.9,"pop":275615},{"name":"Bern","lon":7.47,"lat":46.92,"pop":275329},{"name":"Montería","lon":-75.89,"lat":8.76,"pop":275198},{"name":"Mbandaka","lon":18.26,"lat":0.04,"pop":274996},{"name":"Ciudad Victoria","lon":-99.13,"lat":23.72,"pop":274900},{"name":"Sétif","lon":5.4,"lat":36.18,"pop":274744},{"name":"Pamplona","lon":-1.65,"lat":42.82,"pop":274545},{"name":"Jinshi","lon":111.85,"lat":29.63,"pop":274000},{"name":"Ubon Ratchathani","lon":104.83,"lat":15.25,"pop":273893},{"name":"Crato","lon":-39.42,"lat":-7.23,"pop":273883},{"name":"Crato","lon":-63.04,"lat":-7.46,"pop":273883},{"name":"Guantánamo","lon":-75.21,"lat":20.15,"pop":272801},{"name":"Blackpool","lon":-3.05,"lat":53.83,"pop":272792},{"name":"Majene","lon":118.97,"lat":-3.53,"pop":272377},{"name":"Yamagata","lon":140.32,"lat":38.27,"pop":272209},{"name":"Pakalongan","lon":109.67,"lat":-6.88,"pop":272000},{"name":"Elâzığ","lon":39.23,"lat":38.68,"pop":271492},{"name":"Sari","lon":53.1,"lat":36.55,"pop":271467},{"name":"Tasikmalaya","lon":108.21,"lat":-7.33,"pop":271143},{"name":"Vijayapura","lon":75.71,"lat":16.84,"pop":271064},{"name":"Little Rock","lon":-92.33,"lat":34.74,"pop":270893},{"name":"Venice","lon":12.33,"lat":45.44,"pop":270816},{"name":"Gombe","lon":11.17,"lat":10.29,"pop":270366},{"name":"Münster","lon":7.62,"lat":51.97,"pop":270184},{"name":"Thohoyandou","lon":30.48,"lat":-22.95,"pop":269707},{"name":"Kiel","lon":10.13,"lat":54.33,"pop":269427},{"name":"Malmö","lon":13.02,"lat":55.6,"pop":269349},{"name":"Nancy","lon":6.2,"lat":48.68,"pop":268976},{"name":"Mokpo","lon":126.4,"lat":34.81,"pop":268402},{"name":"Windhoek","lon":17.08,"lat":-22.57,"pop":268132},{"name":"Tebingtinggi","lon":99.13,"lat":3.33,"pop":268043},{"name":"Yanbu al Bahr","lon":38.05,"lat":24.09,"pop":267590},{"name":"Tshikapa","lon":20.77,"lat":-6.41,"pop":267462},{"name":"Sterlitamak","lon":55.96,"lat":53.63,"pop":267231},{"name":"Padangsidempuan","lon":99.27,"lat":1.39,"pop":266882},{"name":"Myeik","lon":98.61,"lat":12.45,"pop":266720},{"name":"Ann Arbor","lon":-83.72,"lat":42.3,"pop":265976},{"name":"Temuco","lon":-72.58,"lat":-38.73,"pop":265901},{"name":"Lausanne","lon":6.65,"lat":46.53,"pop":265702},{"name":"Saint-Étienne","lon":4.38,"lat":45.43,"pop":265684},{"name":"Melbourne","lon":-80.61,"lat":28.08,"pop":265414},{"name":"Petrozavodsk","lon":34.36,"lat":61.78,"pop":265025},{"name":"Imphal","lon":93.95,"lat":24.8,"pop":264986},{"name":"Umuahia","lon":7.49,"lat":5.53,"pop":264662},{"name":"Lexington","lon":-84.5,"lat":38.05,"pop":264578},{"name":"Uruapan","lon":-102.07,"lat":19.42,"pop":264531},{"name":"Georgetown","lon":-58.17,"lat":6.8,"pop":264350},{"name":"Sivas","lon":37.03,"lat":39.75,"pop":264022},{"name":"Tubruq","lon":23.96,"lat":32.08,"pop":263527},{"name":"Graz","lon":15.41,"lat":47.08,"pop":263234},{"name":"Kindu","lon":25.91,"lat":-2.96,"pop":262914},{"name":"Aqtobe","lon":57.17,"lat":50.28,"pop":262457},{"name":"Augusta","lon":-81.98,"lat":33.46,"pop":262332},{"name":"Naples","lon":-81.79,"lat":26.14,"pop":262306},{"name":"Paraná","lon":-60.53,"lat":-31.73,"pop":262295},{"name":"Az Aubayr","lon":47.71,"lat":30.39,"pop":262219},{"name":"Cabo Frio","lon":-42.04,"lat":-22.89,"pop":261721},{"name":"Balıkesir","lon":27.89,"lat":39.65,"pop":261516},{"name":"Zhuanghe","lon":122.96,"lat":39.68,"pop":261510},{"name":"Karamay","lon":84.86,"lat":45.59,"pop":261445},{"name":"Lakeville","lon":-93.24,"lat":44.65,"pop":261308},{"name":"Sincelejo","lon":-75.38,"lat":9.29,"pop":261187},{"name":"Petrolina","lon":-40.51,"lat":-9.38,"pop":260985},{"name":"Acarigua","lon":-69.2,"lat":9.58,"pop":260921},{"name":"Wollongong","lon":150.89,"lat":-34.42,"pop":260914},{"name":"Uberaba","lon":-47.95,"lat":-19.78,"pop":260843},{"name":"Anchorage","lon":-149.89,"lat":61.21,"pop":260283},{"name":"Adapazarı","lon":30.42,"lat":40.8,"pop":260109},{"name":"Konibodom","lon":70.43,"lat":40.29,"pop":259876},{"name":"Kondoz","lon":68.87,"lat":36.73,"pop":259809},{"name":"Tampere","lon":23.75,"lat":61.5,"pop":259279},{"name":"Popayán","lon":-76.61,"lat":2.42,"pop":258750},{"name":"Canton","lon":-81.38,"lat":40.8,"pop":258660},{"name":"Nonthaburi","lon":100.48,"lat":13.83,"pop":258550},{"name":"Al Mukalla","lon":49.13,"lat":14.54,"pop":258132},{"name":"Rio Branco","lon":-67.8,"lat":-9.97,"pop":257642},{"name":"Chattanooga","lon":-85.25,"lat":35.07,"pop":257589},{"name":"Etawah","lon":79.01,"lat":26.79,"pop":257448},{"name":"Mendefera","lon":38.82,"lat":14.89,"pop":257390},{"name":"Cascavel","lon":-53.46,"lat":-24.96,"pop":257172},{"name":"Ondo","lon":4.84,"lat":7.09,"pop":257005},{"name":"Chimoio","lon":33.47,"lat":-19.12,"pop":256936},{"name":"Ensenada","lon":-116.62,"lat":31.87,"pop":256565},{"name":"Dzerzhinsk","lon":43.46,"lat":56.25,"pop":256537},{"name":"Da Lat","lon":108.42,"lat":11.93,"pop":256019},{"name":"Rockford","lon":-89.07,"lat":42.27,"pop":255978},{"name":"Damaturu","lon":11.97,"lat":11.75,"pop":255895},{"name":"Davenport","lon":-90.59,"lat":41.55,"pop":255738},{"name":"Raichur","lon":77.36,"lat":16.21,"pop":255240},{"name":"Daloa","lon":-6.45,"lat":6.89,"pop":255168},{"name":"Rivne","lon":26.25,"lat":50.62,"pop":255106},{"name":"Freiburg","lon":7.87,"lat":48,"pop":254889},{"name":"Poza Rica de Hidalgo","lon":-97.44,"lat":20.53,"pop":254481},{"name":"Chuxiong","lon":101.55,"lat":25.04,"pop":254370},{"name":"Cirebon","lon":108.57,"lat":-6.73,"pop":254298},{"name":"Paramaribo","lon":-55.17,"lat":5.84,"pop":254169},{"name":"Fort-de-France","lon":-61.08,"lat":14.61,"pop":253995},{"name":"Pathankot","lon":75.72,"lat":32.27,"pop":253987},{"name":"Mobile","lon":-88.05,"lat":30.68,"pop":253466},{"name":"Chirala","lon":80.34,"lat":15.86,"pop":253000},{"name":"Buenaventura","lon":-77.05,"lat":3.87,"pop":252805},{"name":"El Fasher","lon":25.35,"lat":13.63,"pop":252609},{"name":"Dire Dawa","lon":41.86,"lat":9.59,"pop":252279},{"name":"Suihua","lon":126.98,"lat":46.63,"pop":252245},{"name":"Messina","lon":15.55,"lat":38.2,"pop":252026},{"name":"Borujerd","lon":48.8,"lat":33.92,"pop":251958},{"name":"Linhai","lon":121.12,"lat":28.85,"pop":251759},{"name":"Khon Kaen","lon":102.83,"lat":16.42,"pop":251056},{"name":"Morogoro","lon":37.66,"lat":-6.82,"pop":250902},{"name":"Jackson","lon":-90.18,"lat":32.3,"pop":250902},{"name":"Governador Valadares","lon":-41.97,"lat":-18.87,"pop":250878},{"name":"Sonipat","lon":77.02,"lat":29,"pop":250521},{"name":"Santa Clara","lon":-79.97,"lat":22.4,"pop":250512},{"name":"Iwo","lon":4.18,"lat":7.63,"pop":250443},{"name":"Coral Springs","lon":-80.27,"lat":26.27,"pop":250000},{"name":"Caserta","lon":14.34,"lat":41.06,"pop":250000},{"name":"Como","lon":9.08,"lat":45.81,"pop":250000},{"name":"Luzern","lon":8.28,"lat":47.05,"pop":250000},{"name":"Quảng Ngãi","lon":108.83,"lat":15.15,"pop":250000},{"name":"Arua","lon":30.9,"lat":3.02,"pop":250000},{"name":"Zumpango","lon":-99.11,"lat":19.81,"pop":250000},{"name":"Kashan","lon":51.58,"lat":33.98,"pop":250000},{"name":"Niš","lon":21.9,"lat":43.33,"pop":250000},{"name":"Laiyang","lon":120.71,"lat":36.97,"pop":250000},{"name":"Jaffna","lon":80.01,"lat":9.68,"pop":250000},{"name":"Waukesha","lon":-88.23,"lat":43.01,"pop":249912},{"name":"Várzea Grande","lon":-56.14,"lat":-15.65,"pop":249752},{"name":"Kirovohrad","lon":32.26,"lat":48.5,"pop":249454},{"name":"Melun","lon":2.67,"lat":48.53,"pop":249432},{"name":"Mutare","lon":32.65,"lat":-18.97,"pop":249365},{"name":"Santa Maria","lon":-53.8,"lat":-29.68,"pop":249219},{"name":"Hafar al Batin","lon":45.96,"lat":28.43,"pop":249194},{"name":"Los Mochis","lon":-109,"lat":25.79,"pop":249047},{"name":"Jalal Abad","lon":73,"lat":40.94,"pop":248899},{"name":"Vung Tau","lon":107.08,"lat":10.36,"pop":248767},{"name":"Fukui","lon":136.22,"lat":36.07,"pop":248707},{"name":"Shreveport","lon":-93.77,"lat":32.5,"pop":248053},{"name":"Singkawang","lon":108.97,"lat":0.91,"pop":248012},{"name":"Miskolc","lon":20.78,"lat":48.1,"pop":247757},{"name":"Plymouth","lon":-4.16,"lat":50.39,"pop":247297},{"name":"Udon Thani","lon":102.79,"lat":17.4,"pop":247231},{"name":"Kattaqorgon","lon":66.26,"lat":39.9,"pop":247113},{"name":"Orsk","lon":58.63,"lat":51.21,"pop":246836},{"name":"San Bernardo","lon":-70.7,"lat":-33.6,"pop":246762},{"name":"Oruro","lon":-67.13,"lat":-17.98,"pop":246501},{"name":"Bratsk","lon":101.62,"lat":56.16,"pop":246348},{"name":"Lincoln","lon":-96.68,"lat":40.82,"pop":246220},{"name":"Matadi","lon":13.45,"lat":-5.82,"pop":245862},{"name":"Mirzapur","lon":82.57,"lat":25.15,"pop":245817},