[{"name":"Shanghai","lat":31.22,"lon":121.46,"pop":24874500},{"name":"Beijing","lat":39.91,"lon":116.4,"pop":18960744},{"name":"Shenzhen","lat":22.55,"lon":114.07,"pop":17494398},{"name":"Guangzhou","lat":23.12,"lon":113.25,"pop":16096724},{"name":"Kinshasa","lat":-4.33,"lon":15.31,"pop":16000000},{"name":"Istanbul","lat":41.01,"lon":28.95,"pop":15701602},{"name":"Lagos","lat":6.45,"lon":3.39,"pop":15388000},{"name":"Ho Chi Minh City","lat":10.82,"lon":106.63,"pop":14002598},{"name":"Chengdu","lat":30.67,"lon":104.07,"pop":13568357},{"name":"Lahore","lat":31.56,"lon":74.35,"pop":13004135},{"name":"Mumbai","lat":19.07,"lon":72.88,"pop":12691836},{"name":"São Paulo","lat":-23.55,"lon":-46.64,"pop":12400232},{"name":"Mexico City","lat":19.43,"lon":-99.13,"pop":12294193},{"name":"Karachi","lat":24.86,"lon":67.01,"pop":11624219},{"name":"Tianjin","lat":39.14,"lon":117.18,"pop":11090314},{"name":"Delhi","lat":28.65,"lon":77.23,"pop":11034555},{"name":"Wuhan","lat":30.58,"lon":114.27,"pop":10392693},{"name":"Moscow","lat":55.75,"lon":37.62,"pop":10381222},{"name":"Dhaka","lat":23.71,"lon":90.41,"pop":10356500},{"name":"Seoul","lat":37.57,"lon":126.98,"pop":10349312},{"name":"Tokyo","lat":35.69,"lon":139.69,"pop":9733276},{"name":"Dongguan","lat":23.02,"lon":113.75,"pop":9644871},{"name":"Cairo","lat":30.06,"lon":31.25,"pop":9606916},{"name":"Xi’an","lat":34.26,"lon":108.93,"pop":9600000},{"name":"Johannesburg","lat":-26.2,"lon":28.04,"pop":9418183},{"name":"Nanjing","lat":32.06,"lon":118.78,"pop":9314685},{"name":"Hangzhou","lat":30.29,"lon":120.16,"pop":9236032},{"name":"Foshan","lat":23.03,"lon":113.13,"pop":9042509},{"name":"London","lat":51.51,"lon":-0.13,"pop":8961989},{"name":"New York City","lat":40.71,"lon":-74.01,"pop":8804190},{"name":"Jakarta","lat":-6.21,"lon":106.85,"pop":8540121},{"name":"Bengaluru","lat":12.97,"lon":77.59,"pop":8495492},{"name":"Hanoi","lat":21.02,"lon":105.84,"pop":8053663},{"name":"Taipei","lat":25.05,"lon":121.53,"pop":7871900},{"name":"Lima","lat":-12.04,"lon":-77.03,"pop":7737002},{"name":"Bogotá","lat":4.61,"lon":-74.08,"pop":7674366},{"name":"Chongqing","lat":29.56,"lon":106.56,"pop":7457599},{"name":"Hong Kong","lat":22.28,"lon":114.17,"pop":7396076},{"name":"Baghdad","lat":33.34,"lon":44.4,"pop":7216000},{"name":"Qingdao","lat":36.06,"lon":120.38,"pop":7172451},{"name":"Tehran","lat":35.69,"lon":51.42,"pop":7153309},{"name":"Shenyang","lat":41.79,"lon":123.43,"pop":7050000},{"name":"Hyderabad","lat":17.38,"lon":78.46,"pop":6993262},{"name":"Rio de Janeiro","lat":-22.91,"lon":-43.18,"pop":6747815},{"name":"Suzhou","lat":31.3,"lon":120.6,"pop":6715559},{"name":"Ahmedabad","lat":23.03,"lon":72.59,"pop":6357693},{"name":"Abidjan","lat":5.35,"lon":-4,"pop":6321017},{"name":"Singapore","lat":1.29,"lon":103.85,"pop":5638700},{"name":"Sydney","lat":-33.87,"lon":151.21,"pop":5557233},{"name":"Dar es Salaam","lat":-6.82,"lon":39.27,"pop":5383728},{"name":"Saint Petersburg","lat":59.94,"lon":30.31,"pop":5351935},{"name":"Melbourne","lat":-37.81,"lon":144.96,"pop":5350705},{"name":"Alexandria","lat":31.2,"lon":29.92,"pop":5263542},{"name":"Harbin","lat":45.75,"lon":126.65,"pop":5242897},{"name":"Bangkok","lat":13.75,"lon":100.5,"pop":5104476},{"name":"Hefei","lat":31.86,"lon":117.28,"pop":5050000},{"name":"Dalian","lat":38.91,"lon":121.6,"pop":4913879},{"name":"Kano","lat":12,"lon":8.52,"pop":4910000},{"name":"Santiago","lat":-33.46,"lon":-70.65,"pop":4837295},{"name":"Cape Town","lat":-33.93,"lon":18.42,"pop":4772846},{"name":"Peshawar","lat":34.01,"lon":71.58,"pop":4758762},{"name":"Changchun","lat":43.88,"lon":125.32,"pop":4714996},{"name":"Jeddah","lat":21.49,"lon":39.19,"pop":4697000},{"name":"Chennai","lat":13.09,"lon":80.28,"pop":4681087},{"name":"Kolkata","lat":22.56,"lon":88.36,"pop":4631392},{"name":"Xiamen","lat":24.48,"lon":118.08,"pop":4617251},{"name":"Surat","lat":21.2,"lon":72.83,"pop":4591246},{"name":"Yangon","lat":16.81,"lon":96.16,"pop":4477638},{"name":"Bao'an","lat":22.55,"lon":113.88,"pop":4476554},{"name":"Kabul","lat":34.53,"lon":69.17,"pop":4434550},{"name":"Nairobi","lat":-1.28,"lon":36.82,"pop":4397073},{"name":"Wuxi","lat":31.57,"lon":120.29,"pop":4396835},{"name":"Giza","lat":30.01,"lon":31.21,"pop":4367343},{"name":"Jinan","lat":36.67,"lon":117,"pop":4335989},{"name":"Taiyuan","lat":37.87,"lon":112.56,"pop":4303673},{"name":"Zhengzhou","lat":34.76,"lon":113.65,"pop":4253913},{"name":"Bamako","lat":12.61,"lon":-7.98,"pop":4227569},{"name":"Riyadh","lat":24.69,"lon":46.72,"pop":4205961},{"name":"New Taipei City","lat":25.06,"lon":121.46,"pop":4004367},{"name":"New Territories","lat":22.42,"lon":114.11,"pop":3984077},{"name":"Shijiazhuang","lat":38.04,"lon":114.48,"pop":3938513},{"name":"Chattogram","lat":22.34,"lon":91.83,"pop":3920222},{"name":"Addis Ababa","lat":9.02,"lon":38.75,"pop":3860000},{"name":"Kunming","lat":25.04,"lon":102.72,"pop":3855346},{"name":"Zhongshan","lat":22.52,"lon":113.38,"pop":3841873},{"name":"Nanning","lat":22.82,"lon":108.32,"pop":3839800},{"name":"Shantou","lat":23.35,"lon":116.68,"pop":3838900},{"name":"Los Angeles","lat":34.05,"lon":-118.24,"pop":3820914},{"name":"Faisalabad","lat":31.42,"lon":73.09,"pop":3800193},{"name":"Dubai","lat":25.08,"lon":55.31,"pop":3790000},{"name":"Yokohama","lat":35.43,"lon":139.65,"pop":3777491},{"name":"Fuzhou","lat":26.06,"lon":119.31,"pop":3740000},{"name":"Ningbo","lat":29.88,"lon":121.55,"pop":3731203},{"name":"Casablanca","lat":33.59,"lon":-7.61,"pop":3665954},{"name":"Ibadan","lat":7.38,"lon":3.91,"pop":3649000},{"name":"Puyang","lat":29.46,"lon":119.89,"pop":3590000},{"name":"Ankara","lat":39.92,"lon":32.85,"pop":3517182},{"name":"Shiyan","lat":32.65,"lon":110.78,"pop":3460000},{"name":"Berlin","lat":52.52,"lon":13.41,"pop":3426354},{"name":"Tangshan","lat":39.64,"lon":118.18,"pop":3372102},{"name":"Rawalpindi","lat":33.6,"lon":73.05,"pop":3357612},{"name":"Lüliang","lat":37.52,"lon":111.14,"pop":3346500},{"name":"Busan","lat":35.1,"lon":129.03,"pop":3343903},{"name":"Durban","lat":-29.86,"lon":31.03,"pop":3338026},{"name":"Changzhou","lat":31.77,"lon":119.95,"pop":3290918},{"name":"Madrid","lat":40.42,"lon":-3.7,"pop":3255944},{"name":"Pyongyang","lat":39.03,"lon":125.75,"pop":3222000},{"name":"Zibo","lat":36.79,"lon":118.06,"pop":3129228},{"name":"Pune","lat":18.52,"lon":73.86,"pop":3124458},{"name":"Bursa","lat":40.2,"lon":29.06,"pop":3101833},{"name":"Changsha","lat":28.2,"lon":112.97,"pop":3093980},{"name":"Quezon City","lat":14.65,"lon":121.05,"pop":3084270},{"name":"Jaipur","lat":26.92,"lon":75.79,"pop":3046163},{"name":"Incheon","lat":37.46,"lon":126.71,"pop":3039450},{"name":"Guiyang","lat":26.58,"lon":106.72,"pop":3037159},{"name":"Ürümqi","lat":43.8,"lon":87.6,"pop":3029372},{"name":"Lanzhou","lat":36.06,"lon":103.84,"pop":3000000},{"name":"Caracas","lat":10.49,"lon":-66.88,"pop":3000000},{"name":"İzmir","lat":38.41,"lon":27.14,"pop":2938292},{"name":"Huizhou","lat":23.11,"lon":114.42,"pop":2900113},{"name":"Buenos Aires","lat":-34.61,"lon":-58.38,"pop":2891082},{"name":"Surabaya","lat":-7.25,"lon":112.75,"pop":2874314},{"name":"Haikou","lat":20.03,"lon":110.35,"pop":2873358},{"name":"Taichung","lat":24.15,"lon":120.68,"pop":2850285},{"name":"Kanpur","lat":26.47,"lon":80.35,"pop":2823249},{"name":"Kyiv","lat":50.45,"lon":30.52,"pop":2797553},{"name":"Toronto","lat":43.71,"lon":-79.4,"pop":2794356},{"name":"Quito","lat":-0.23,"lon":-78.52,"pop":2781641},{"name":"Brisbane","lat":-27.47,"lon":153.03,"pop":2780063},{"name":"Luanda","lat":-8.84,"lon":13.23,"pop":2776168},{"name":"Osaka","lat":34.69,"lon":135.5,"pop":2753862},{"name":"Linyi","lat":35.06,"lon":118.34,"pop":2743843},{"name":"Baoding","lat":38.87,"lon":115.46,"pop":2739887},{"name":"Kaohsiung","lat":22.62,"lon":120.31,"pop":2737660},{"name":"Brooklyn","lat":40.65,"lon":-73.95,"pop":2736074},{"name":"Guayaquil","lat":-2.2,"lon":-79.89,"pop":2723665},{"name":"Belo Horizonte","lat":-19.92,"lon":-43.94,"pop":2721564},{"name":"Salvador","lat":-12.98,"lon":-38.49,"pop":2711840},{"name":"Abuja","lat":9.06,"lon":7.5,"pop":2690000},{"name":"Gazipur","lat":24,"lon":90.42,"pop":2674697},{"name":"Chicago","lat":41.85,"lon":-87.65,"pop":2664452},{"name":"Wenzhou","lat":28,"lon":120.67,"pop":2650000},{"name":"Dakar","lat":14.69,"lon":-17.44,"pop":2646503},{"name":"Haiphong","lat":20.86,"lon":106.68,"pop":2625200},{"name":"Yunfu","lat":22.93,"lon":112.04,"pop":2612800},{"name":"Navi Mumbai","lat":19.04,"lon":73.02,"pop":2600000},{"name":"Mogadishu","lat":2.04,"lon":45.34,"pop":2587183},{"name":"Bekasi","lat":-6.23,"lon":106.99,"pop":2564940},{"name":"Kumasi","lat":6.69,"lon":-1.62,"pop":2544530},{"name":"Gujranwala","lat":32.16,"lon":74.19,"pop":2511118},{"name":"Huai'an","lat":33.59,"lon":119.02,"pop":2494013},{"name":"Lucknow","lat":26.84,"lon":80.92,"pop":2472011},{"name":"Bandung","lat":-6.92,"lon":107.61,"pop":2444160},{"name":"Medan","lat":3.58,"lon":98.67,"pop":2435252},{"name":"Ouagadougou","lat":12.37,"lon":-1.53,"pop":2415266},{"name":"Nagpur","lat":21.15,"lon":79.08,"pop":2405665},{"name":"Fortaleza","lat":-3.72,"lon":-38.54,"pop":2400000},{"name":"Cali","lat":3.43,"lon":-76.52,"pop":2392877},{"name":"Daegu","lat":35.87,"lon":128.59,"pop":2365523},{"name":"Algiers","lat":36.73,"lon":3.09,"pop":2364230},{"name":"Nanchang","lat":28.68,"lon":115.85,"pop":2357839},{"name":"Hohhot","lat":40.81,"lon":111.65,"pop":2350000},{"name":"Nagoya","lat":35.18,"lon":136.91,"pop":2332176},{"name":"Rome","lat":41.89,"lon":12.51,"pop":2318895},{"name":"Queens","lat":40.68,"lon":-73.84,"pop":2316841},{"name":"Houston","lat":29.76,"lon":-95.36,"pop":2314157},{"name":"Perth","lat":-31.95,"lon":115.86,"pop":2309338},{"name":"Mashhad","lat":36.3,"lon":59.61,"pop":2307177},{"name":"Shaoxing","lat":30,"lon":120.58,"pop":2300000},{"name":"Nantong","lat":32.03,"lon":120.87,"pop":2273326},{"name":"Kowloon","lat":22.32,"lon":114.18,"pop":2232339},{"name":"Yantai","lat":37.48,"lon":121.44,"pop":2227733},{"name":"Lubumbashi","lat":-11.66,"lon":27.48,"pop":2221925},{"name":"Manaus","lat":-3.1,"lon":-60.02,"pop":2219580},{"name":"Lusaka","lat":-15.41,"lon":28.29,"pop":2212301},{"name":"Brasília","lat":-15.78,"lon":-47.93,"pop":2207718},{"name":"Zhuhai","lat":22.28,"lon":113.57,"pop":2207090},{"name":"Santo Domingo","lat":18.47,"lon":-69.89,"pop":2201941},{"name":"Lomé","lat":6.13,"lon":1.22,"pop":2188376},{"name":"Multan","lat":30.2,"lon":71.48,"pop":2169915},{"name":"Havana","lat":23.13,"lon":-82.38,"pop":2163824},{"name":"Baotou","lat":40.65,"lon":109.84,"pop":2150000},{"name":"Depok","lat":-6.4,"lon":106.82,"pop":2145400},{"name":"Paris","lat":48.85,"lon":2.35,"pop":2138551},{"name":"Coimbatore","lat":11.01,"lon":76.97,"pop":2136916},{"name":"Gaziantep","lat":37.06,"lon":37.38,"pop":2130432},{"name":"Qingyang","lat":35.71,"lon":107.64,"pop":2125400},{"name":"Port Harcourt","lat":4.78,"lon":7.01,"pop":2120000},{"name":"Pretoria","lat":-25.74,"lon":28.19,"pop":2112693},{"name":"Córdoba","lat":-31.41,"lon":-64.19,"pop":2106734},{"name":"Mbuji-Mayi","lat":-6.14,"lon":23.59,"pop":2101332},{"name":"Aleppo","lat":36.2,"lon":37.16,"pop":2098210},{"name":"Kunshan","lat":31.38,"lon":120.95,"pop":2092496},{"name":"Al Mawşil al Jadīdah","lat":36.33,"lon":43.11,"pop":2065597},{"name":"Weifang","lat":36.71,"lon":119.1,"pop":2044028},{"name":"Zunyi","lat":27.69,"lon":106.91,"pop":2037775},{"name":"Al Başrah al Qadīmah","lat":30.5,"lon":47.82,"pop":2015483},{"name":"La Paz","lat":-16.5,"lon":-68.15,"pop":2004652},{"name":"Lianyungang","lat":34.6,"lon":119.22,"pop":2001009},{"name":"Medellín","lat":6.25,"lon":-75.57,"pop":1999979},{"name":"Indore","lat":22.72,"lon":75.83,"pop":1994397},{"name":"Brazzaville","lat":-4.27,"lon":15.28,"pop":1982000},{"name":"Tashkent","lat":41.26,"lon":69.22,"pop":1978028},{"name":"Ganzhou","lat":25.85,"lon":114.93,"pop":1977253},{"name":"Almaty","lat":43.25,"lon":76.91,"pop":1977011},{"name":"Khartoum","lat":15.55,"lon":32.53,"pop":1974647},{"name":"Sapporo","lat":43.07,"lon":141.35,"pop":1973832},{"name":"Accra","lat":5.56,"lon":-0.2,"pop":1963264},{"name":"Curitiba","lat":-25.43,"lon":-49.27,"pop":1948626},{"name":"Ordos","lat":39.61,"lon":109.78,"pop":1940653},{"name":"Sanaa","lat":15.35,"lon":44.21,"pop":1937451},{"name":"Conakry","lat":9.54,"lon":-13.68,"pop":1928389},{"name":"Tijuana","lat":32.5,"lon":-117,"pop":1922523},{"name":"Hyderabad","lat":25.4,"lon":68.38,"pop":1921275},{"name":"Beirut","lat":33.89,"lon":35.5,"pop":1916100},{"name":"Tangerang","lat":-6.18,"lon":106.63,"pop":1912679},{"name":"Jieyang","lat":23.54,"lon":116.37,"pop":1899394},{"name":"Jilin","lat":43.85,"lon":126.56,"pop":1895865},{"name":"Bucharest","lat":44.43,"lon":26.11,"pop":1877155},{"name":"Camayenne","lat":9.54,"lon":-13.69,"pop":1871242},{"name":"Kakamega","lat":0.28,"lon":34.75,"pop":1867579},{"name":"Nanchong","lat":30.8,"lon":106.08,"pop":1858875},{"name":"Tainan","lat":22.99,"lon":120.21,"pop":1856642},{"name":"Datong","lat":40.09,"lon":113.29,"pop":1850000},{"name":"Kaduna","lat":10.53,"lon":7.44,"pop":1850000},{"name":"Omdurman","lat":15.64,"lon":32.48,"pop":1849659},{"name":"Davao","lat":7.07,"lon":125.61,"pop":1848947},{"name":"Hamburg","lat":53.55,"lon":9.99,"pop":1845229},{"name":"Thāne","lat":19.2,"lon":72.96,"pop":1841488},{"name":"Iztapalapa","lat":19.36,"lon":-99.06,"pop":1835486},{"name":"Santa Cruz de la Sierra","lat":-17.79,"lon":-63.18,"pop":1831434},{"name":"Vadodara","lat":22.3,"lon":73.21,"pop":1822221},{"name":"Adana","lat":36.99,"lon":35.33,"pop":1816750},{"name":"Nanyang","lat":32.99,"lon":112.53,"pop":1811812},{"name":"Abu Dhabi","lat":24.45,"lon":54.4,"pop":1807000},{"name":"Sharjah","lat":25.33,"lon":55.41,"pop":1800000},{"name":"Bhopal","lat":23.25,"lon":77.4,"pop":1798218},{"name":"Jiangmen","lat":22.58,"lon":113.08,"pop":1795459},{"name":"Diyarbakır","lat":37.91,"lon":40.22,"pop":1791373},{"name":"Benin City","lat":6.34,"lon":5.63,"pop":1782000},{"name":"Jiangyin","lat":31.91,"lon":120.26,"pop":1779515},{"name":"Fuyang","lat":32.9,"lon":115.82,"pop":1768947},{"name":"Montréal","lat":45.51,"lon":-73.59,"pop":1762949},{"name":"Bayan Nur","lat":40.74,"lon":107.39,"pop":1760000},{"name":"Maracaibo","lat":10.64,"lon":-71.61,"pop":1752602},{"name":"Chaozhou","lat":23.65,"lon":116.62,"pop":1750945},{"name":"Minsk","lat":53.9,"lon":27.57,"pop":1742124},{"name":"Budapest","lat":47.5,"lon":19.04,"pop":1741041},{"name":"Qingyuan","lat":23.7,"lon":113.03,"pop":1738424},{"name":"Tai’an","lat":36.19,"lon":117.12,"pop":1735425},{"name":"Rasapūdipalem","lat":17.73,"lon":83.32,"pop":1728128},{"name":"Pimpri-Chinchwad","lat":18.62,"lon":73.8,"pop":1727692},{"name":"Caloocan","lat":14.65,"lon":120.97,"pop":1712945},{"name":"Warsaw","lat":52.23,"lon":21.01,"pop":1702139},{"name":"Soweto","lat":-26.27,"lon":27.86,"pop":1695047},{"name":"Puebla","lat":19.05,"lon":-98.21,"pop":1692181},{"name":"Vienna","lat":48.21,"lon":16.37,"pop":1691468},{"name":"Barcelona","lat":41.39,"lon":2.16,"pop":1686208},{"name":"Patna","lat":25.59,"lon":85.14,"pop":1684297},{"name":"Mosul","lat":36.34,"lon":43.12,"pop":1683000},{"name":"Kallakurichi","lat":11.73,"lon":78.96,"pop":1682687},{"name":"Kampala","lat":0.32,"lon":32.58,"pop":1680600},{"name":"Xining","lat":36.63,"lon":101.76,"pop":1677177},{"name":"Changshu","lat":31.65,"lon":120.74,"pop":1677050},{"name":"Palembang","lat":-2.92,"lon":104.75,"pop":1668848},{"name":"Huainan","lat":32.63,"lon":117,"pop":1666826},{"name":"Rabat","lat":34.01,"lon":-6.83,"pop":1655753},{"name":"Semarang","lat":-6.99,"lon":110.42,"pop":1653524},{"name":"Recife","lat":-8.05,"lon":-34.88,"pop":1653461},{"name":"Phoenix","lat":33.45,"lon":-112.07,"pop":1650070},{"name":"Suzhou","lat":33.64,"lon":116.98,"pop":1647642},{"name":"Ecatepec de Morelos","lat":19.6,"lon":-99.06,"pop":1645352},{"name":"Lu’an","lat":31.74,"lon":116.52,"pop":1644344},{"name":"Valencia","lat":10.16,"lon":-68,"pop":1619470},{"name":"Ludhiana","lat":30.91,"lon":75.85,"pop":1618879},{"name":"Yancheng","lat":33.36,"lon":120.16,"pop":1615717},{"name":"Novosibirsk","lat":55.02,"lon":82.93,"pop":1612833},{"name":"Erbil","lat":36.19,"lon":44.01,"pop":1612700},{"name":"Fukuoka","lat":33.6,"lon":130.42,"pop":1612392},{"name":"Taizhou","lat":32.49,"lon":119.91,"pop":1607108},{"name":"Daqing","lat":46.58,"lon":125,"pop":1604027},{"name":"Manila","lat":14.6,"lon":120.98,"pop":1600000},{"name":"Wuhu","lat":31.35,"lon":118.43,"pop":1598165},{"name":"Santiago de Querétaro","lat":20.59,"lon":-100.39,"pop":1594212},{"name":"Dazhou","lat":31.21,"lon":107.46,"pop":1589435},{"name":"Yangzhou","lat":32.4,"lon":119.44,"pop":1584237},{"name":"León de los Aldama","lat":21.13,"lon":-101.67,"pop":1579803},{"name":"Makkah","lat":21.43,"lon":39.83,"pop":1578722},{"name":"Philadelphia","lat":39.95,"lon":-75.16,"pop":1573916},{"name":"Phnom Penh","lat":11.56,"lon":104.92,"pop":1573544},{"name":"Guilin","lat":25.28,"lon":110.3,"pop":1572300},{"name":"Damascus","lat":33.51,"lon":36.29,"pop":1569394},{"name":"Quetta","lat":30.18,"lon":67,"pop":1565546},{"name":"Zhaoqing","lat":23.05,"lon":112.46,"pop":1553109},{"name":"Onitsha","lat":6.15,"lon":6.79,"pop":1553000},{"name":"Mianyang","lat":31.47,"lon":104.68,"pop":1550000},{"name":"Isfahan","lat":32.65,"lon":51.67,"pop":1547164},{"name":"Wanzhou","lat":30.76,"lon":108.4,"pop":1545900},{"name":"Harare","lat":-17.83,"lon":31.05,"pop":1542813},{"name":"Monrovia","lat":6.3,"lon":-10.8,"pop":1542549},{"name":"Putian","lat":25.44,"lon":119.01,"pop":1539389},{"name":"Kawasaki","lat":35.52,"lon":139.72,"pop":1538262},{"name":"Shangqiu","lat":34.45,"lon":115.65,"pop":1536392},{"name":"Goiânia","lat":-16.68,"lon":-49.25,"pop":1536097},{"name":"Auckland","lat":-36.85,"lon":174.76,"pop":1530500},{"name":"San Antonio","lat":29.42,"lon":-98.49,"pop":1526656},{"name":"Kobe","lat":34.69,"lon":135.18,"pop":1525152},{"name":"Stockholm","lat":59.33,"lon":18.07,"pop":1515017},{"name":"Ciudad Juárez","lat":31.72,"lon":-106.46,"pop":1512450},{"name":"Cần Thơ","lat":10.04,"lon":105.79,"pop":1507187},{"name":"Khulna","lat":22.81,"lon":89.56,"pop":1500689},{"name":"Belém","lat":-1.46,"lon":-48.5,"pop":1499641},{"name":"Yekaterinburg","lat":56.86,"lon":60.62,"pop":1495066},{"name":"Porto Alegre","lat":-30.03,"lon":-51.23,"pop":1488252},{"name":"Yinchuan","lat":38.47,"lon":106.27,"pop":1487579},{"name":"Manhattan","lat":40.78,"lon":-73.97,"pop":1487536},{"name":"Nashik","lat":20,"lon":73.79,"pop":1486053},{"name":"Taizhou","lat":28.66,"lon":121.43,"pop":1485502},{"name":"Asunción","lat":-25.29,"lon":-57.65,"pop":1482200},{"name":"Yiwu","lat":29.32,"lon":120.08,"pop":1481384},{"name":"Zapopan","lat":20.72,"lon":-103.39,"pop":1476491},{"name":"Daejeon","lat":36.35,"lon":127.38,"pop":1470336},{"name":"Adelaide","lat":-34.93,"lon":138.6,"pop":1469163},{"name":"Quanzhou","lat":24.91,"lon":118.59,"pop":1469157},{"name":"Madurai","lat":9.92,"lon":78.12,"pop":1465625},{"name":"Jinhua","lat":29.11,"lon":119.64,"pop":1463990},{"name":"Kyoto","lat":35.02,"lon":135.75,"pop":1463723},{"name":"Cixi","lat":30.18,"lon":121.25,"pop":1457510},{"name":"Changde","lat":29.03,"lon":111.7,"pop":1457419},{"name":"Kuala Lumpur","lat":3.14,"lon":101.69,"pop":1453975},{"name":"Kaifeng","lat":34.8,"lon":114.31,"pop":1451741},{"name":"Anshan","lat":41.12,"lon":122.99,"pop":1450000},{"name":"Karaj","lat":35.83,"lon":50.99,"pop":1448075},{"name":"Kathmandu","lat":27.7,"lon":85.32,"pop":1442271},{"name":"Baoji","lat":34.37,"lon":107.24,"pop":1437802},{"name":"Suqian","lat":33.95,"lon":118.3,"pop":1437685},{"name":"Liuzhou","lat":24.32,"lon":109.41,"pop":1436599},{"name":"Tirunelveli","lat":8.73,"lon":77.68,"pop":1435844},{"name":"Kayseri","lat":38.73,"lon":35.49,"pop":1434357},{"name":"Kharkiv","lat":49.98,"lon":36.25,"pop":1433886},{"name":"Konya","lat":37.87,"lon":32.48,"pop":1433861},{"name":"Zhangjiagang","lat":31.87,"lon":120.54,"pop":1432044},{"name":"Agra","lat":27.18,"lon":78.02,"pop":1430055},{"name":"Tabriz","lat":38.08,"lon":46.29,"pop":1424641},{"name":"Makassar","lat":-5.15,"lon":119.43,"pop":1423877},{"name":"Jinjiang","lat":24.82,"lon":118.57,"pop":1416151},{"name":"Faridabad","lat":28.41,"lon":77.31,"pop":1414050},{"name":"Bozhou","lat":33.88,"lon":115.77,"pop":1409436},{"name":"Qujing","lat":25.48,"lon":103.78,"pop":1408500},{"name":"South Tangerang","lat":-6.29,"lon":106.72,"pop":1404785},{"name":"San Diego","lat":32.72,"lon":-117.16,"pop":1404452},{"name":"Zhanjiang","lat":21.23,"lon":110.39,"pop":1400709},{"name":"Fushun","lat":41.89,"lon":123.94,"pop":1400646},{"name":"Gwangju","lat":35.15,"lon":126.92,"pop":1398538},{"name":"Rājkot","lat":22.29,"lon":70.79,"pop":1390640},{"name":"Luoyang","lat":34.67,"lon":112.44,"pop":1390581},{"name":"Guadalajara","lat":20.68,"lon":-103.35,"pop":1385629},{"name":"The Bronx","lat":40.85,"lon":-73.87,"pop":1385108},{"name":"Guankou","lat":28.16,"lon":113.63,"pop":1380000},{"name":"Huế","lat":16.46,"lon":107.6,"pop":1380000},{"name":"Milan","lat":45.46,"lon":9.19,"pop":1371498},{"name":"Najafgarh","lat":28.61,"lon":76.98,"pop":1365000},{"name":"N'Djamena","lat":12.11,"lon":15.04,"pop":1359526},{"name":"Handan","lat":36.61,"lon":114.49,"pop":1358318},{"name":"Bannu","lat":32.99,"lon":70.6,"pop":1357890},{"name":"Yichang","lat":30.71,"lon":111.28,"pop":1350150},{"name":"Antananarivo","lat":-18.91,"lon":47.54,"pop":1349501},{"name":"Heze","lat":35.24,"lon":115.47,"pop":1346717},{"name":"Antalya","lat":36.91,"lon":30.7,"pop":1344000},{"name":"Abobo","lat":5.42,"lon":-4.02,"pop":1340083},{"name":"Jamshedpur","lat":22.8,"lon":86.19,"pop":1339438},{"name":"Douala","lat":4.05,"lon":9.7,"pop":1338082},{"name":"Basrah","lat":30.51,"lon":47.78,"pop":1326564},{"name":"Dallas","lat":32.78,"lon":-96.81,"pop":1326087},{"name":"Saitama","lat":35.91,"lon":139.66,"pop":1324854},{"name":"Gorakhpur","lat":29.45,"lon":75.67,"pop":1324570},{"name":"Niamey","lat":13.51,"lon":2.11,"pop":1323691},{"name":"Liupanshui","lat":26.59,"lon":104.83,"pop":1320825},{"name":"Taguig","lat":14.52,"lon":121.08,"pop":1308085},{"name":"Maoming","lat":21.67,"lon":110.91,"pop":1307802},{"name":"Calgary","lat":51.05,"lon":-114.09,"pop":1306784},{"name":"Tripoli","lat":32.89,"lon":13.19,"pop":1302947},{"name":"Callao","lat":-12.05,"lon":-77.13,"pop":1300000},{"name":"Madinah","lat":24.47,"lon":39.61,"pop":1300000},{"name":"Yaoundé","lat":3.87,"lon":11.52,"pop":1299369},{"name":"Qinzhou","lat":21.98,"lon":108.65,"pop":1296300},{"name":"Luohe","lat":33.56,"lon":114.04,"pop":1294974},{"name":"Xiangyang","lat":32.04,"lon":112.14,"pop":1294733},{"name":"Yangjiang","lat":21.86,"lon":111.96,"pop":1292987},{"name":"Yixing","lat":31.36,"lon":119.82,"pop":1285785},{"name":"Pimpri","lat":18.62,"lon":73.81,"pop":1284606},{"name":"Da Nang","lat":16.07,"lon":108.22,"pop":1276000},{"name":"Amman","lat":31.96,"lon":35.95,"pop":1275857},{"name":"Budta","lat":7.2,"lon":124.44,"pop":1273715},{"name":"Belgrade","lat":44.8,"lon":20.47,"pop":1273651},{"name":"Biên Hòa","lat":10.94,"lon":106.82,"pop":1272235},{"name":"Montevideo","lat":-34.9,"lon":-56.19,"pop":1270737},{"name":"Xuchang","lat":34.03,"lon":113.86,"pop":1265536},{"name":"Kalyān","lat":19.24,"lon":73.14,"pop":1262255},{"name":"Zigong","lat":29.34,"lon":104.78,"pop":1262064},{"name":"Munich","lat":48.14,"lon":11.58,"pop":1260391},{"name":"Nizhniy Novgorod","lat":56.33,"lon":44,"pop":1259013},{"name":"Jepara","lat":-6.59,"lon":110.67,"pop":1257912},{"name":"Maputo","lat":-25.97,"lon":32.58,"pop":1254837},{"name":"Xuzhou","lat":34.2,"lon":117.28,"pop":1253991},{"name":"Dammam","lat":26.43,"lon":50.1,"pop":1252523},{"name":"Ra’s Bayrūt","lat":33.9,"lon":35.48,"pop":1251739},{"name":"Neijiang","lat":29.58,"lon":105.06,"pop":1251095},{"name":"Shiraz","lat":29.61,"lon":52.53,"pop":1249942},{"name":"Heshan","lat":28.57,"lon":112.35,"pop":1249807},{"name":"Dombivali","lat":19.22,"lon":73.08,"pop":1247327},{"name":"Kananga","lat":-5.9,"lon":22.42,"pop":1247168},{"name":"Kazan","lat":55.79,"lon":49.12,"pop":1243500},{"name":"Jining","lat":35.41,"lon":116.58,"pop":1241012},{"name":"Barquisimeto","lat":10.06,"lon":-69.36,"pop":1240714},{"name":"Shubrā al Khaymah","lat":30.13,"lon":31.25,"pop":1240289},{"name":"Port-au-Prince","lat":18.54,"lon":-72.34,"pop":1234742},{"name":"Xinyang","lat":32.12,"lon":114.07,"pop":1230042},{"name":"Liaocheng","lat":36.45,"lon":116,"pop":1229768},{"name":"Jinzhong","lat":37.68,"lon":112.75,"pop":1226617},{"name":"Meerut","lat":28.98,"lon":77.71,"pop":1223184},{"name":"Virār","lat":19.46,"lon":72.81,"pop":1222390},{"name":"Nowrangapur","lat":19.23,"lon":82.55,"pop":1220946},{"name":"Karbala","lat":32.62,"lon":44.02,"pop":1218732},{"name":"Changzhi","lat":36.18,"lon":113.11,"pop":1214940},{"name":"Tianshui","lat":34.58,"lon":105.74,"pop":1212791},{"name":"Mombasa","lat":-4.05,"lon":39.66,"pop":1208333},{"name":"Mandalay","lat":21.97,"lon":96.08,"pop":1208099},{"name":"Srinagar","lat":34.09,"lon":74.81,"pop":1206419},{"name":"Barranquilla","lat":10.97,"lon":-74.78,"pop":1206319},{"name":"Chelyabinsk","lat":55.16,"lon":61.43,"pop":1202371},{"name":"Mérida","lat":20.97,"lon":-89.62,"pop":1201000},{"name":"Hiroshima","lat":34.4,"lon":132.45,"pop":1200754},{"name":"Santiago de los Caballeros","lat":19.45,"lon":-70.69,"pop":1200000},{"name":"Shymkent","lat":42.31,"lon":69.6,"pop":1200000},{"name":"Weinan","lat":34.5,"lon":109.51,"pop":1199290},{"name":"Ghāziābād","lat":28.67,"lon":77.44,"pop":1199191},{"name":"Matola","lat":-25.96,"lon":32.46,"pop":1198988},{"name":"Dhanbad","lat":23.8,"lon":86.43,"pop":1196214},{"name":"Hong Kong Island","lat":22.26,"lon":114.18,"pop":1195529},{"name":"Fes","lat":34.03,"lon":-5,"pop":1191905},{"name":"Suwon","lat":37.29,"lon":127.01,"pop":1191063},{"name":"Gustavo Adolfo Madero","lat":19.49,"lon":-99.11,"pop":1185772},{"name":"Nouakchott","lat":18.09,"lon":-15.98,"pop":1184530},{"name":"Kisangani","lat":0.52,"lon":25.19,"pop":1181788},{"name":"Jiaxing","lat":30.75,"lon":120.75,"pop":1180000},{"name":"Aurangabad","lat":19.88,"lon":75.34,"pop":1175116},{"name":"Omsk","lat":54.99,"lon":73.37,"pop":1172070},{"name":"Guarulhos","lat":-23.46,"lon":-46.53,"pop":1169577},{"name":"Bandar Lampung","lat":-5.43,"lon":105.26,"pop":1166066},{"name":"Prague","lat":50.09,"lon":14.42,"pop":1165581},{"name":"Varanasi","lat":25.32,"lon":83.01,"pop":1164404},{"name":"Batam","lat":1.15,"lon":104.02,"pop":1164352},{"name":"Jiujiang","lat":29.7,"lon":116,"pop":1164268},{"name":"Samara","lat":53.21,"lon":50.14,"pop":1163399},{"name":"Aba","lat":5.11,"lon":7.37,"pop":1160000},{"name":"Amritsar","lat":31.62,"lon":74.88,"pop":1159227},{"name":"Birmingham","lat":52.48,"lon":-1.9,"pop":1157603},{"name":"Copenhagen","lat":55.68,"lon":12.57,"pop":1153615},{"name":"Sofia","lat":42.7,"lon":23.32,"pop":1152556},{"name":"Anyang","lat":36.1,"lon":114.38,"pop":1146839},{"name":"Yerevan","lat":40.18,"lon":44.51,"pop":1144700},{"name":"Luohu District","lat":22.55,"lon":114.13,"pop":1143801},{"name":"Vijayawada","lat":16.51,"lon":80.65,"pop":1143232},{"name":"Bijie","lat":27.3,"lon":105.29,"pop":1137383},{"name":"Monterrey","lat":25.68,"lon":-100.32,"pop":1135512},{"name":"Kigali","lat":-1.95,"lon":30.06,"pop":1132686},{"name":"Rostov-na-Donu","lat":47.22,"lon":39.71,"pop":1130305},{"name":"Zhuzhou","lat":27.83,"lon":113.15,"pop":1129687},{"name":"Bogor","lat":-6.59,"lon":106.79,"pop":1127408},{"name":"Malingao","lat":7.16,"lon":124.48,"pop":1121974},{"name":"Touba","lat":14.86,"lon":-15.88,"pop":1120824},{"name":"Ufa","lat":54.74,"lon":55.97,"pop":1120547},{"name":"Ranchi","lat":23.34,"lon":85.31,"pop":1120374},{"name":"Baku","lat":40.38,"lon":49.89,"pop":1116513},{"name":"Shangrao","lat":28.45,"lon":117.94,"pop":1116486},{"name":"Lilongwe","lat":-13.97,"lon":33.79,"pop":1115815},{"name":"Huaibei","lat":33.97,"lon":116.79,"pop":1113321},{"name":"Maiduguri","lat":11.85,"lon":13.16,"pop":1110000},{"name":"Meishan","lat":30.04,"lon":103.84,"pop":1107742},{"name":"Mwanza","lat":-2.52,"lon":32.9,"pop":1104521},{"name":"Sendai","lat":38.27,"lon":140.87,"pop":1096704},{"name":"Ulsan","lat":35.54,"lon":129.32,"pop":1095014},{"name":"Krasnoyarsk","lat":56.04,"lon":92.93,"pop":1090811},{"name":"Fuzhou","lat":27.96,"lon":116.33,"pop":1089888},{"name":"Guigang","lat":23.12,"lon":109.59,"pop":1086327},{"name":"Pekanbaru","lat":0.52,"lon":101.44,"pop":1085000},{"name":"Oslo","lat":59.91,"lon":10.75,"pop":1082575},{"name":"Jabalpur","lat":23.17,"lon":79.95,"pop":1081677},{"name":"Ilorin","lat":8.5,"lon":4.54,"pop":1080000},{"name":"Aden","lat":12.78,"lon":45.04,"pop":1079670},{"name":"Ciudad Nezahualcoyotl","lat":19.4,"lon":-99.01,"pop":1077208},{"name":"Hengyang","lat":26.89,"lon":112.62,"pop":1075516},{"name":"Prayagraj","lat":25.44,"lon":81.84,"pop":1073438},{"name":"Visakhapatnam","lat":17.68,"lon":83.2,"pop":1063178},{"name":"Goyang-si","lat":37.66,"lon":126.84,"pop":1061752},{"name":"Yulin","lat":22.63,"lon":110.15,"pop":1056743},{"name":"Jodhpur","lat":26.27,"lon":73.01,"pop":1056191},{"name":"Gwalior","lat":26.23,"lon":78.17,"pop":1054420},{"name":"Jingzhou","lat":30.35,"lon":112.19,"pop":1052282},{"name":"Gqeberha","lat":-33.96,"lon":25.61,"pop":1050078},{"name":"Tbilisi","lat":41.69,"lon":44.83,"pop":1049498},{"name":"Voronezh","lat":51.67,"lon":39.19,"pop":1047549},{"name":"Xinxiang","lat":35.19,"lon":113.8,"pop":1047088},{"name":"Yichun","lat":27.83,"lon":114.4,"pop":1045952},{"name":"Sokoto","lat":13.06,"lon":5.24,"pop":1040000},{"name":"Jos","lat":9.93,"lon":8.89,"pop":1040000},{"name":"Tangier","lat":35.77,"lon":-5.8,"pop":1035141},{"name":"Teni","lat":10.01,"lon":77.48,"pop":1034724},{"name":"Xianyang","lat":34.34,"lon":108.7,"pop":1034081},{"name":"Mexicali","lat":32.63,"lon":-115.45,"pop":1032686},{"name":"Pointe-Noire","lat":-4.78,"lon":11.86,"pop":1032000},{"name":"Maceió","lat":-9.67,"lon":-35.74,"pop":1031597},{"name":"Campinas","lat":-22.91,"lon":-47.06,"pop":1031554},{"name":"Sanya","lat":18.25,"lon":109.51,"pop":1031396},{"name":"Rangpur","lat":25.75,"lon":89.25,"pop":1031388},{"name":"Kirkuk","lat":35.47,"lon":44.39,"pop":1031000},{"name":"Comilla","lat":23.46,"lon":91.19,"pop":1030000},{"name":"Shaoguan","lat":24.8,"lon":113.58,"pop":1028460},{"name":"Howrah","lat":22.58,"lon":88.32,"pop":1027672},{"name":"Raipur","lat":21.23,"lon":81.63,"pop":1027264},{"name":"Changwon","lat":35.23,"lon":128.68,"pop":1025702},{"name":"Longyan","lat":25.07,"lon":117.02,"pop":1025087},{"name":"Dublin","lat":53.33,"lon":-6.25,"pop":1024027},{"name":"Tiruchirappalli","lat":10.82,"lon":78.7,"pop":1022518},{"name":"Yongzhou","lat":26.42,"lon":111.61,"pop":1020715},{"name":"Brussels","lat":50.85,"lon":4.35,"pop":1019022},{"name":"Zamboanga","lat":6.91,"lon":122.07,"pop":1018849},{"name":"Ottawa","lat":45.41,"lon":-75.7,"pop":1017449},{"name":"Huzhou","lat":30.87,"lon":120.09,"pop":1015937},{"name":"Odesa","lat":46.49,"lon":30.74,"pop":1015826},{"name":"Volgograd","lat":48.71,"lon":44.5,"pop":1013533},{"name":"Khartoum North","lat":15.65,"lon":32.53,"pop":1012211},{"name":"Edmonton","lat":53.55,"lon":-113.47,"pop":1010899},{"name":"Wuwei","lat":37.93,"lon":102.63,"pop":1010295},{"name":"Jacksonville","lat":30.33,"lon":-81.66,"pop":1009833},{"name":"Arequipa","lat":-16.4,"lon":-71.54,"pop":1008290},{"name":"Fort Worth","lat":32.73,"lon":-97.32,"pop":1008106},{"name":"Hanzhong","lat":33.08,"lon":107.02,"pop":1006557},{"name":"Hezhou","lat":24.4,"lon":111.57,"pop":1005490},{"name":"Kota","lat":25.18,"lon":75.84,"pop":1001694},{"name":"Zhu Cheng City","lat":36,"lon":119.4,"pop":1000000},{"name":"Shivaji Nagar","lat":18.53,"lon":73.85,"pop":1000000},{"name":"Dongying","lat":37.46,"lon":118.49,"pop":998968},{"name":"Luzhou","lat":28.89,"lon":105.43,"pop":998900},{"name":"San Jose","lat":37.34,"lon":-121.89,"pop":997368},{"name":"Sholapur","lat":17.67,"lon":75.91,"pop":997281},{"name":"Marrakesh","lat":31.63,"lon":-8,"pop":995871},{"name":"Guatemala City","lat":14.64,"lon":-90.51,"pop":994938},{"name":"Meizhou","lat":24.29,"lon":116.12,"pop":992351},{"name":"Yueyang","lat":29.37,"lon":113.09,"pop":991465},{"name":"Laiwu","lat":36.19,"lon":117.66,"pop":989535},{"name":"Benxi","lat":41.29,"lon":123.77,"pop":987717},{"name":"Perm","lat":58.01,"lon":56.25,"pop":982419},{"name":"Zaria","lat":11.11,"lon":7.72,"pop":980000},{"name":"Chiba","lat":35.6,"lon":140.12,"pop":979768},{"name":"Pingdingshan","lat":33.73,"lon":113.32,"pop":979130},{"name":"Ciudad Guayana","lat":8.35,"lon":-62.64,"pop":978202},{"name":"Sargodha","lat":32.09,"lon":72.67,"pop":975886},{"name":"Austin","lat":30.27,"lon":-97.74,"pop":974447},{"name":"Managua","lat":12.13,"lon":-86.25,"pop":973087},{"name":"Bengbu","lat":32.94,"lon":117.36,"pop":972784},{"name":"Salé","lat":34.05,"lon":-6.8,"pop":972299},{"name":"Jerusalem","lat":31.77,"lon":35.22,"pop":971800},{"name":"Chandigarh","lat":30.74,"lon":76.79,"pop":970602},{"name":"Dnipro","lat":48.47,"lon":35.04,"pop":968502},{"name":"Cebu City","lat":10.32,"lon":123.89,"pop":965332},{"name":"Sanhe","lat":39.98,"lon":117.07,"pop":965075},{"name":"Köln","lat":50.93,"lon":6.95,"pop":963395},{"name":"Tiruppur","lat":11.12,"lon":77.35,"pop":963173},{"name":"Guwahati","lat":26.18,"lon":91.75,"pop":962334},{"name":"Xiangtan","lat":27.85,"lon":112.9,"pop":959303},{"name":"Linfen","lat":36.09,"lon":111.52,"pop":959198},{"name":"Victoria","lat":22.29,"lon":114.14,"pop":956800},{"name":"Zhenjiang","lat":32.21,"lon":119.46,"pop":950516},{"name":"Enugu","lat":6.44,"lon":7.5,"pop":950000},{"name":"Rosario","lat":-32.95,"lon":-60.64,"pop":948312},{"name":"Sulţānah","lat":24.49,"lon":39.59,"pop":946697},{"name":"Huludao","lat":40.75,"lon":120.84,"pop":944495},{"name":"Hubballi","lat":15.35,"lon":75.13,"pop":943788},{"name":"Kitakyushu","lat":33.85,"lon":130.85,"pop":940978},{"name":"Taiz","lat":13.58,"lon":44.02,"pop":940600},{"name":"Setagaya","lat":35.64,"lon":139.65,"pop":940071},{"name":"Kingston","lat":18,"lon":-76.79,"pop":937700},{"name":"Baoshan","lat":25.12,"lon":99.16,"pop":935618},{"name":"Rui’an","lat":27.78,"lon":120.66,"pop":927383},{"name":"Chihuahua","lat":28.64,"lon":-106.09,"pop":925762},{"name":"Nay Pyi Taw","lat":19.75,"lon":96.13,"pop":925000},{"name":"Mysuru","lat":12.3,"lon":76.64,"pop":920550},{"name":"Trujillo","lat":-8.12,"lon":-79.03,"pop":919899},{"name":"Salem","lat":11.65,"lon":78.16,"pop":917414},{"name":"São Luís","lat":-2.53,"lon":-44.3,"pop":917237},{"name":"Seongnam-si","lat":37.44,"lon":127.14,"pop":914832},{"name":"Cartagena","lat":10.4,"lon":-75.49,"pop":914552},{"name":"Antipolo","lat":14.63,"lon":121.12,"pop":913712},{"name":"Columbus","lat":39.96,"lon":-83,"pop":913175},{"name":"Sialkot","lat":32.49,"lon":74.53,"pop":911817},{"name":"Charlotte","lat":35.23,"lon":-80.84,"pop":911311},{"name":"Laibin","lat":23.75,"lon":109.22,"pop":910282},{"name":"Warri","lat":5.52,"lon":5.75,"pop":910000},{"name":"Naples","lat":40.85,"lon":14.27,"pop":909048},{"name":"Padang","lat":-0.95,"lon":100.35,"pop":909040},{"name":"Xiaogan","lat":30.93,"lon":113.92,"pop":908266},{"name":"Campo Grande","lat":-20.44,"lon":-54.65,"pop":906092},{"name":"Ziyang","lat":30.12,"lon":104.65,"pop":905729},{"name":"Bobo-Dioulasso","lat":11.18,"lon":-4.29,"pop":904920},{"name":"Bahawalpur","lat":29.4,"lon":71.68,"pop":903795},{"name":"Quzhou","lat":28.96,"lon":118.87,"pop":902767},{"name":"Blantyre","lat":-15.78,"lon":35.01,"pop":902588},{"name":"Donetsk","lat":48.02,"lon":37.8,"pop":901645},{"name":"Abū Ghurayb","lat":33.31,"lon":44.18,"pop":900000},{"name":"Qom","lat":34.64,"lon":50.88,"pop":900000},{"name":"Bishkek","lat":42.87,"lon":74.59,"pop":900000},{"name":"Zaozhuang","lat":34.86,"lon":117.55,"pop":899753},{"name":"Krasnodar","lat":45.05,"lon":38.98,"pop":899541},{"name":"Natal","lat":-5.79,"lon":-35.21,"pop":896708},{"name":"Pingxiang","lat":27.62,"lon":113.85,"pop":893550},{"name":"Cancún","lat":21.17,"lon":-86.85,"pop":888797},{"name":"Indianapolis","lat":39.77,"lon":-86.16,"pop":887642},{"name":"Gurugram","lat":28.46,"lon":77.03,"pop":886519},{"name":"Bhubaneswar","lat":20.27,"lon":85.83,"pop":885363},{"name":"Zhoushan","lat":29.99,"lon":122.2,"pop":882932},{"name":"Qiqihar","lat":47.34,"lon":123.96,"pop":882364},{"name":"Sulaymaniyah","lat":35.56,"lon":45.43,"pop":878146},{"name":"Marseille","lat":43.3,"lon":5.38,"pop":877215},{"name":"Puning","lat":23.31,"lon":116.17,"pop":874954},{"name":"Pikine","lat":14.76,"lon":-17.39,"pop":874062},{"name":"Bhiwandi","lat":19.3,"lon":73.06,"pop":874032},{"name":"Soshanguve","lat":-25.47,"lon":28.1,"pop":872309},{"name":"Teresina","lat":-5.09,"lon":-42.8,"pop":871126},{"name":"Ankang","lat":32.68,"lon":109.02,"pop":870126},{"name":"Jalandhar","lat":31.33,"lon":75.58,"pop":868929},{"name":"Rotterdam","lat":51.92,"lon":4.48,"pop":868135},{"name":"Langfang","lat":39.52,"lon":116.71,"pop":868066},{"name":"Jiaozuo","lat":35.24,"lon":113.24,"pop":865413},{"name":"Rohini","lat":28.74,"lon":77.07,"pop":860000},{"name":"Wanxian","lat":30.82,"lon":108.37,"pop":859662},{"name":"Guang’an","lat":30.47,"lon":106.64,"pop":858159},{"name":"Johor Bahru","lat":1.47,"lon":103.76,"pop":858118},{"name":"Cheongju-si","lat":36.64,"lon":127.49,"pop":853938},{"name":"Pasig City","lat":14.59,"lon":121.06,"pop":853050},{"name":"Kanayannur","lat":9.97,"lon":76.27,"pop":851406},{"name":"Tegucigalpa","lat":14.08,"lon":-87.21,"pop":850848},{"name":"Bucheon-si","lat":37.5,"lon":126.78,"pop":850731},{"name":"Thanh Hóa","lat":19.8,"lon":105.77,"pop":850000},{"name":"Turin","lat":45.07,"lon":7.69,"pop":847287},{"name":"Malang","lat":-7.98,"lon":112.63,"pop":847182},{"name":"Al Ain City","lat":24.19,"lon":55.76,"pop":846747},{"name":"Libreville","lat":0.39,"lon":9.45,"pop":846090},{"name":"Saratov","lat":51.54,"lon":45.99,"pop":844858},{"name":"Ulan Bator","lat":47.91,"lon":106.88,"pop":844818},{"name":"Weihai","lat":37.51,"lon":122.11,"pop":844310},{"name":"Takeo","lat":10.99,"lon":104.78,"pop":843931},{"name":"Cochabamba","lat":-17.38,"lon":-66.16,"pop":841276},{"name":"Ahvaz","lat":31.32,"lon":48.68,"pop":841145},{"name":"Zhabei","lat":31.26,"lon":121.46,"pop":840000},{"name":"Xinyu","lat":27.8,"lon":114.93,"pop":839488},{"name":"Pietermaritzburg","lat":-29.62,"lon":30.39,"pop":839327},{"name":"Yibin","lat":28.76,"lon":104.64,"pop":836340},{"name":"Naucalpan de Juárez","lat":19.48,"lon":-99.24,"pop":834434},{"name":"Kampung Baru Subang","lat":3.15,"lon":101.53,"pop":833571},{"name":"Bouaké","lat":7.69,"lon":-5.03,"pop":832371},{"name":"Samarinda","lat":-0.49,"lon":117.15,"pop":831460},{"name":"Taicang","lat":31.45,"lon":121.09,"pop":831113},{"name":"San Francisco","lat":37.77,"lon":-122.42,"pop":827526},{"name":"Sakai","lat":34.58,"lon":135.47,"pop":826161},{"name":"Valencia","lat":39.47,"lon":-0.38,"pop":824340},{"name":"Nova Iguaçu","lat":-22.76,"lon":-43.45,"pop":823302},{"name":"Chenzhou","lat":25.8,"lon":113.03,"pop":822534},{"name":"Duque de Caxias","lat":-22.79,"lon":-43.31,"pop":818329},{"name":"João Pessoa","lat":-7.11,"lon":-34.86,"pop":817511},{"name":"Bukavu","lat":-2.49,"lon":28.84,"pop":816811},{"name":"Barcelona","lat":10.14,"lon":-64.69,"pop":815141},{"name":"Bangui","lat":4.36,"lon":18.55,"pop":812407},{"name":"Hermosillo","lat":29.09,"lon":-110.97,"pop":812229},{"name":"Bhayandar","lat":19.3,"lon":72.85,"pop":809378},{"name":"Culiacán","lat":24.8,"lon":-107.39,"pop":808416},{"name":"Petaling Jaya","lat":3.11,"lon":101.61,"pop":807879},{"name":"Malatya","lat":38.35,"lon":38.32,"pop":806156},{"name":"Anqing","lat":30.51,"lon":117.05,"pop":804493},{"name":"Kraków","lat":50.06,"lon":19.94,"pop":804237},{"name":"Oran","lat":35.7,"lon":-0.64,"pop":803329},{"name":"Freetown","lat":8.49,"lon":-13.24,"pop":802639},{"name":"San Pedro Sula","lat":15.51,"lon":-88.03,"pop":801259},{"name":"Narela","lat":28.85,"lon":77.09,"pop":800000},{"name":"Xingtai","lat":37.06,"lon":114.49,"pop":798770},{"name":"Niigata","lat":37.92,"lon":139.04,"pop":797591},{"name":"Muscat","lat":23.58,"lon":58.41,"pop":797000},{"name":"Zarqa","lat":32.07,"lon":36.09,"pop":792665},{"name":"Çankaya","lat":39.92,"lon":32.86,"pop":792189},{"name":"Hamamatsu","lat":34.7,"lon":137.73,"pop":791707},{"name":"Kolwezi","lat":-10.71,"lon":25.47,"pop":790248},{"name":"Vinh","lat":18.67,"lon":105.69,"pop":790000},{"name":"Eskişehir","lat":39.78,"lon":30.52,"pop":789023},{"name":"Thiruvananthapuram","lat":8.49,"lon":76.95,"pop":788271},{"name":"Zhaotong","lat":27.32,"lon":103.72,"pop":787845},{"name":"Panzhihua","lat":26.59,"lon":101.71,"pop":787177},{"name":"Chuzhou","lat":32.32,"lon":118.3,"pop":782671},{"name":"Seattle","lat":47.61,"lon":-122.33,"pop":780995},{"name":"Port Said","lat":31.27,"lon":32.3,"pop":780515},{"name":"Cúcuta","lat":7.91,"lon":-72.5,"pop":777106},{"name":"Homs","lat":34.72,"lon":36.73,"pop":775404},{"name":"Xuancheng","lat":30.95,"lon":118.76,"pop":774332},{"name":"Ibb","lat":13.97,"lon":44.18,"pop":771514},{"name":"Nampula","lat":-15.12,"lon":39.27,"pop":770379},{"name":"Shangyu","lat":30.02,"lon":120.87,"pop":770000},{"name":"Bujumbura","lat":-3.38,"lon":29.36,"pop":769317},{"name":"Tyumen","lat":57.15,"lon":65.53,"pop":768358},{"name":"Erzurum","lat":39.91,"lon":41.28,"pop":767848},{"name":"Anshun","lat":26.25,"lon":105.93,"pop":765313},{"name":"Dodoma","lat":-6.17,"lon":35.74,"pop":765179},{"name":"Rajshahi","lat":24.37,"lon":88.6,"pop":763580},{"name":"Dera Ismail Khan","lat":31.83,"lon":70.9,"pop":763195},{"name":"Wuzhou","lat":23.48,"lon":111.29,"pop":761948},{"name":"Ipoh","lat":4.58,"lon":101.08,"pop":759952},{"name":"Qinhuangdao","lat":39.94,"lon":119.59,"pop":759718},{"name":"Benghazi","lat":32.11,"lon":20.07,"pop":757490},{"name":"Alīgarh","lat":27.88,"lon":78.07,"pop":753207},{"name":"Shaoyang","lat":27.24,"lon":111.46,"pop":753194},{"name":"Winnipeg","lat":49.88,"lon":-97.15,"pop":749607},{"name":"Bağcılar","lat":41.04,"lon":28.86,"pop":749024},{"name":"Ōta","lat":35.56,"lon":139.72,"pop":748081},{"name":"Andijon","lat":40.78,"lon":72.35,"pop":747800},{"name":"Bareilly","lat":28.37,"lon":79.43,"pop":745435},{"name":"Buraydah","lat":26.33,"lon":43.97,"pop":745353},{"name":"São Bernardo do Campo","lat":-23.69,"lon":-46.56,"pop":743372},{"name":"Hegang","lat":47.35,"lon":130.29,"pop":743307},{"name":"Morelia","lat":19.7,"lon":-101.18,"pop":743275},{"name":"Riga","lat":56.95,"lon":24.11,"pop":742572},{"name":"Tasikmalaya","lat":-7.33,"lon":108.22,"pop":741760},{"name":"Amsterdam","lat":52.37,"lon":4.89,"pop":741636},{"name":"Cagayan de Oro","lat":8.48,"lon":124.65,"pop":741617},{"name":"Ma’anshan","lat":31.69,"lon":118.51,"pop":741531},{"name":"Shah Alam","lat":3.09,"lon":101.53,"pop":740750},{"name":"Shizuishan","lat":38.98,"lon":106.39,"pop":739400},{"name":"Kumamoto","lat":32.81,"lon":130.69,"pop":738907},{"name":"Oyo","lat":7.85,"lon":3.93,"pop":736072},{"name":"Torreón","lat":25.54,"lon":-103.42,"pop":735340},{"name":"Deyang","lat":31.13,"lon":104.38,"pop":735070},{"name":"Abeokuta","lat":7.16,"lon":3.35,"pop":735000},{"name":"Al Ḩudaydah","lat":14.8,"lon":42.95,"pop":734699},{"name":"Yangquan","lat":37.86,"lon":113.56,"pop":731228},{"name":"Akure","lat":7.25,"lon":5.19,"pop":730000},{"name":"São José dos Campos","lat":-23.18,"lon":-45.89,"pop":729737},{"name":"Denver","lat":39.74,"lon":-104.98,"pop":729019},{"name":"Osasco","lat":-23.53,"lon":-46.79,"pop":728615},{"name":"Ashgabat","lat":37.95,"lon":58.38,"pop":727700},{"name":"Álvaro Obregón","lat":19.36,"lon":-99.2,"pop":726664},{"name":"Aihara","lat":35.6,"lon":139.32,"pop":725493},{"name":"Evaton","lat":-26.53,"lon":27.85,"pop":725468},{"name":"Denpasar","lat":-8.65,"lon":115.22,"pop":725314},{"name":"Valenzuela","lat":14.7,"lon":120.97,"pop":725173},{"name":"Muzaffarābād","lat":34.37,"lon":73.47,"pop":725000},{"name":"Okayama","lat":34.65,"lon":133.93,"pop":724691},{"name":"San Luis Potosí","lat":22.15,"lon":-100.97,"pop":722772},{"name":"Aguascalientes","lat":21.88,"lon":-102.28,"pop":722250},{"name":"General Santos","lat":6.11,"lon":125.17,"pop":722059},{"name":"Zhumadian","lat":32.98,"lon":114.03,"pop":721670},{"name":"Morādābād","lat":28.84,"lon":78.78,"pop":721139},{"name":"Sagamihara","lat":35.57,"lon":139.24,"pop":720780},{"name":"Mississauga","lat":43.58,"lon":-79.66,"pop":717961},{"name":"Lviv","lat":49.84,"lon":24.02,"pop":717273},{"name":"Namangan","lat":41,"lon":71.67,"pop":713220},{"name":"Ribeirão Preto","lat":-21.18,"lon":-47.81,"pop":711825},{"name":"Zaporizhzhya","lat":47.85,"lon":35.12,"pop":710052},{"name":"Zanzibar","lat":-6.16,"lon":39.2,"pop":709809},{"name":"Saltillo","lat":25.43,"lon":-100.98,"pop":709671},{"name":"Latakia","lat":35.53,"lon":35.79,"pop":709000},{"name":"Subang Jaya","lat":3.04,"lon":101.58,"pop":708296},{"name":"Warangal","lat":18,"lon":79.58,"pop":704570},{"name":"Paranaque City","lat":14.48,"lon":121.02,"pop":703245},{"name":"Tolyatti","lat":53.53,"lon":49.35,"pop":702879},{"name":"Jaboatão","lat":-8.18,"lon":-35,"pop":702621},{"name":"Santo Domingo Oeste","lat":18.5,"lon":-70,"pop":701269},{"name":"Santo Domingo Este","lat":18.49,"lon":-69.85,"pop":700000},{"name":"Dhārāvi","lat":19.05,"lon":72.87,"pop":700000},{"name":"Battagram","lat":34.68,"lon":73.02,"pop":700000},{"name":"Suez","lat":29.97,"lon":32.53,"pop":699541},{"name":"Changzhi","lat":35.21,"lon":111.74,"pop":699514},{"name":"Agadir","lat":30.42,"lon":-9.6,"pop":698310},{"name":"Edogawe","lat":35.69,"lon":139.87,"pop":697932},{"name":"Sarajevo","lat":43.85,"lon":18.36,"pop":696731},{"name":"Balikpapan","lat":-1.27,"lon":116.83,"pop":695287},{"name":"Adachi","lat":35.76,"lon":139.81,"pop":695043},{"name":"Bauchi","lat":10.31,"lon":9.84,"pop":693700},{"name":"Shizuoka","lat":34.98,"lon":138.38,"pop":693389},{"name":"Tunis","lat":36.82,"lon":10.17,"pop":693210},{"name":"Zhangjiakou","lat":40.78,"lon":114.87,"pop":692602},{"name":"Serang","lat":-6.12,"lon":106.15,"pop":692101},{"name":"Washington","lat":38.9,"lon":-77.04,"pop":689545},{"name":"Nashville","lat":36.17,"lon":-86.78,"pop":689447},{"name":"Fuxin","lat":42.02,"lon":121.66,"pop":689050},{"name":"Ta’if","lat":21.27,"lon":40.42,"pop":688693},{"name":"Changsha","lat":22.38,"lon":112.68,"pop":688242},{"name":"Huangshi","lat":30.25,"lon":115.05,"pop":688090},{"name":"Liaoyang","lat":41.27,"lon":123.17,"pop":687890},{"name":"Hlaingthaya","lat":16.85,"lon":96.07,"pop":687867},{"name":"Beira","lat":-19.84,"lon":34.84,"pop":687764},{"name":"Sorocaba","lat":-23.5,"lon":-47.46,"pop":687357},{"name":"Zaragoza","lat":41.66,"lon":-0.88,"pop":686986},{"name":"Sevilla","lat":37.38,"lon":-5.97,"pop":686741},{"name":"Baise","lat":23.89,"lon":106.63,"pop":686078},{"name":"Situbondo","lat":-7.71,"lon":114.01,"pop":685967},{"name":"Binzhou","lat":37.37,"lon":118.02,"pop":682717},{"name":"Oklahoma City","lat":35.47,"lon":-97.52,"pop":681054},{"name":"Yuncheng","lat":35.02,"lon":110.99,"pop":680036},{"name":"Dezhou","lat":37.45,"lon":116.37,"pop":679535},{"name":"Dushanbe","lat":38.54,"lon":68.78,"pop":679400},{"name":"Cotonou","lat":6.37,"lon":2.42,"pop":679012},{"name":"El Paso","lat":31.76,"lon":-106.49,"pop":678815},{"name":"Gorakhpur","lat":26.77,"lon":83.37,"pop":674246},{"name":"Guadalupe","lat":25.68,"lon":-100.26,"pop":673616},{"name":"Wrocław","lat":51.1,"lon":17.03,"pop":672545},{"name":"Guntur","lat":16.3,"lon":80.46,"pop":670073},{"name":"Katsina","lat":12.99,"lon":7.6,"pop":670000},{"name":"Sanmenxia","lat":34.78,"lon":111.19,"pop":669307},{"name":"E’zhou","lat":30.4,"lon":114.89,"pop":668727},{"name":"Madīnat an Naşr","lat":30.07,"lon":31.3,"pop":668413},{"name":"Tabuk","lat":28.4,"lon":36.57,"pop":667000},{"name":"Kitwe","lat":-12.8,"lon":28.21,"pop":665961},{"name":"Bulawayo","lat":-20.15,"lon":28.58,"pop":665952},{"name":"Mudanjiang","lat":44.55,"lon":129.63,"pop":665915},{"name":"Aracaju","lat":-10.91,"lon":-37.07,"pop":664908},{"name":"Athens","lat":37.98,"lon":23.73,"pop":664046},{"name":"Zagreb","lat":45.81,"lon":15.98,"pop":663592},{"name":"Leshan","lat":29.56,"lon":103.76,"pop":662814},{"name":"Santo André","lat":-23.66,"lon":-46.54,"pop":662373},{"name":"Vancouver","lat":49.25,"lon":-123.12,"pop":662248},{"name":"Rizhao","lat":35.41,"lon":119.53,"pop":661943},{"name":"Helsinki","lat":60.17,"lon":24.94,"pop":658864},{"name":"Cheonan","lat":36.81,"lon":127.15,"pop":658831},{"name":"Pontianak","lat":-0.03,"lon":109.33,"pop":658685},{"name":"Acapulco de Juárez","lat":16.85,"lon":-99.91,"pop":658609},{"name":"Banjarmasin","lat":-3.32,"lon":114.59,"pop":657663},{"name":"Puducherry","lat":11.93,"lon":79.83,"pop":657209},{"name":"Suining","lat":30.51,"lon":105.57,"pop":656760},{"name":"Brampton","lat":43.68,"lon":-79.77,"pop":656480},{"name":"Puyang","lat":35.76,"lon":115.04,"pop":655674},{"name":"Soacha","lat":4.58,"lon":-74.22,"pop":655025},{"name":"Boston","lat":42.36,"lon":-71.06,"pop":653833},{"name":"Tlalnepantla","lat":19.54,"lon":-99.2,"pop":653410},{"name":"Portland","lat":45.52,"lon":-122.68,"pop":652503},{"name":"Tlaquepaque","lat":20.64,"lon":-103.29,"pop":650123},{"name":"Frankfurt am Main","lat":50.12,"lon":8.68,"pop":650000},{"name":"Macau","lat":22.2,"lon":113.55,"pop":649335},{"name":"Palermo","lat":38.12,"lon":13.36,"pop":648260},{"name":"Izhevsk","lat":56.85,"lon":53.2,"pop":648213},{"name":"Colombo","lat":6.94,"lon":79.85,"pop":648034},{"name":"Maturín","lat":9.75,"lon":-63.18,"pop":647459},{"name":"Amravati","lat":20.93,"lon":77.75,"pop":647057},{"name":"Detroit","lat":42.33,"lon":-83.05,"pop":645705},{"name":"Łódź","lat":51.77,"lon":19.47,"pop":645693},{"name":"Osogbo","lat":7.77,"lon":4.56,"pop":645000},{"name":"Honchō","lat":35.7,"lon":139.99,"pop":644668},{"name":"Bikaner","lat":28.02,"lon":73.31,"pop":644406},{"name":"Jaboatão dos Guararapes","lat":-8.11,"lon":-35.01,"pop":644037},{"name":"Las Vegas","lat":36.17,"lon":-115.14,"pop":641903},{"name":"New South Memphis","lat":35.09,"lon":-90.06,"pop":641608},{"name":"Hwaseong-si","lat":37.21,"lon":126.82,"pop":640890},{"name":"Gold Coast","lat":-28,"lon":153.43,"pop":640778},{"name":"Al Aḩmadī","lat":29.08,"lon":48.08,"pop":637411},{"name":"Cuenca","lat":-2.9,"lon":-79,"pop":636996},{"name":"Chisinau","lat":47.01,"lon":28.86,"pop":635994},{"name":"Likasi","lat":-10.98,"lon":26.74,"pop":635768},{"name":"Hebi","lat":35.73,"lon":114.29,"pop":634721},{"name":"Tshikapa","lat":-6.42,"lon":20.8,"pop":634529},{"name":"Kochi","lat":9.94,"lon":76.26,"pop":633553},{"name":"Memphis","lat":35.15,"lon":-90.05,"pop":633104},{"name":"Jingmen","lat":31.03,"lon":112.2,"pop":632954},{"name":"Barnaul","lat":53.36,"lon":83.73,"pop":632372},{"name":"Dandong","lat":40.13,"lon":124.39,"pop":631973},{"name":"Stuttgart","lat":48.78,"lon":9.18,"pop":630305},{"name":"Jeonju","lat":35.82,"lon":127.15,"pop":629618},{"name":"Bhilai","lat":21.21,"lon":81.43,"pop":627734},{"name":"Ndola","lat":-12.96,"lon":28.64,"pop":627503},{"name":"Contagem","lat":-19.93,"lon":-44.05,"pop":627123},{"name":"Ulyanovsk","lat":54.33,"lon":48.39,"pop":626540},{"name":"Djibouti","lat":11.59,"lon":43.15,"pop":626512},{"name":"Glasgow","lat":55.87,"lon":-4.26,"pop":626410},{"name":"Panshan","lat":41.19,"lon":122.05,"pop":625040},{"name":"Louisville","lat":38.25,"lon":-85.76,"pop":624444},{"name":"Irkutsk","lat":52.3,"lon":104.29,"pop":623869},{"name":"Ansan-si","lat":37.32,"lon":126.82,"pop":623256},{"name":"Al Mansurah","lat":31.04,"lon":31.38,"pop":621953},{"name":"Kermanshah","lat":34.31,"lon":47.07,"pop":621100},{"name":"Düsseldorf","lat":51.22,"lon":6.78,"pop":620523},{"name":"Feira de Santana","lat":-12.27,"lon":-38.97,"pop":619609},{"name":"Jiaozhou","lat":36.28,"lon":120,"pop":619266},{"name":"Suizhou","lat":31.71,"lon":113.36,"pop":618582},{"name":"Villa Nueva","lat":14.53,"lon":-90.59,"pop":618397},{"name":"Khabarovsk","lat":48.46,"lon":135.1,"pop":618150},{"name":"Cuiabá","lat":-15.6,"lon":-56.1,"pop":618124},{"name":"Arusha","lat":-3.37,"lon":36.68,"pop":617631},{"name":"Las Piñas","lat":14.45,"lon":120.98,"pop":615549},{"name":"Chizhou","lat":30.66,"lon":117.48,"pop":615274},{"name":"Coyoacán","lat":19.35,"lon":-99.16,"pop":614447},{"name":"Ya'an","lat":29.99,"lon":103,"pop":612056},{"name":"Cuttack","lat":20.46,"lon":85.88,"pop":610189},{"name":"Borivli","lat":19.23,"lon":72.86,"pop":609617},{"name":"Yaroslavl","lat":57.63,"lon":39.87,"pop":608722},{"name":"Göteborg","lat":57.71,"lon":11.97,"pop":608462},{"name":"Kawaguchi","lat":35.81,"lon":139.71,"pop":607373},{"name":"Bukit Rahman Putra","lat":3.22,"lon":101.56,"pop":607000},{"name":"Jambi City","lat":-1.6,"lon":103.62,"pop":606200},{"name":"Ha'il","lat":27.52,"lon":41.69,"pop":605930},{"name":"Bhavnagar","lat":21.76,"lon":72.15,"pop":605882},{"name":"Benoni","lat":-26.19,"lon":28.32,"pop":605344},{"name":"Vladivostok","lat":43.11,"lon":131.87,"pop":604901},{"name":"Jinzhou","lat":41.11,"lon":121.14,"pop":604269},{"name":"Tuxtla","lat":16.75,"lon":-93.12,"pop":604147},{"name":"Kryvyy Rih","lat":47.91,"lon":33.39,"pop":603904},{"name":"Sanming","lat":26.25,"lon":117.62,"pop":602166},{"name":"Islamabad","lat":33.72,"lon":73.04,"pop":601600},{"name":"Sāngli","lat":16.85,"lon":74.56,"pop":601214},{"name":"Jamnagar","lat":22.47,"lon":70.07,"pop":600943},{"name":"Lubango","lat":-14.92,"lon":13.49,"pop":600751},{"name":"Pokhara","lat":28.27,"lon":83.97,"pop":600051},{"name":"Shuangyashan","lat":46.68,"lon":131.13,"pop":600000},{"name":"Borama","lat":9.94,"lon":43.18,"pop":597842},{"name":"Pallabi","lat":23.83,"lon":90.37,"pop":597574},{"name":"Luancheng","lat":37.88,"lon":114.65,"pop":597130},{"name":"Makhachkala","lat":42.98,"lon":47.5,"pop":596356},{"name":"Anyang-si","lat":37.39,"lon":126.93,"pop":595644},{"name":"Huambo","lat":-12.78,"lon":15.74,"pop":595304},{"name":"Samarkand","lat":39.65,"lon":66.96,"pop":595200},{"name":"Mengzi","lat":23.37,"lon":103.38,"pop":595100},{"name":"Kagoshima","lat":31.57,"lon":130.55,"pop":595049},{"name":"Mukalla","lat":14.54,"lon":49.12,"pop":594951},{"name":"Rasht","lat":37.28,"lon":49.59,"pop":594590},{"name":"Mar del Plata","lat":-38,"lon":-57.56,"pop":593337},{"name":"Essen","lat":51.46,"lon":7.01,"pop":593085},{"name":"Al Maḩallah al Kubrá","lat":30.97,"lon":31.17,"pop":592573},{"name":"Málaga","lat":36.72,"lon":-4.42,"pop":591637},{"name":"Shekhupura","lat":31.71,"lon":73.99,"pop":591424},{"name":"Yingkou","lat":40.66,"lon":122.23,"pop":591159},{"name":"Cimahi","lat":-6.87,"lon":107.54,"pop":590782},{"name":"Zhangzhou","lat":24.51,"lon":117.66,"pop":589831},{"name":"Reynosa","lat":26.08,"lon":-98.28,"pop":589466},{"name":"Thuận An","lat":10.92,"lon":106.71,"pop":588616},{"name":"Dortmund","lat":51.51,"lon":7.47,"pop":588462},{"name":"Suginami","lat":36.2,"lon":140.28,"pop":588354},{"name":"Londrina","lat":-23.31,"lon":-51.16,"pop":588125},{"name":"Baltimore","lat":39.29,"lon":-76.61,"pop":585708},{"name":"Itabashi","lat":35.75,"lon":139.71,"pop":584483},{"name":"New Kingston","lat":18.01,"lon":-76.78,"pop":583958},{"name":"Pelentong","lat":1.52,"lon":103.82,"pop":583640},{"name":"Bucaramanga","lat":7.13,"lon":-73.12,"pop":581130},{"name":"Genoa","lat":44.4,"lon":8.94,"pop":580097},{"name":"Hachiōji","lat":35.66,"lon":139.32,"pop":579355},{"name":"Malacca","lat":2.2,"lon":102.24,"pop":579000},{"name":"Nha Trang","lat":12.25,"lon":109.19,"pop":579000},{"name":"Khabarovsk Vtoroy","lat":48.44,"lon":135.13,"pop":578303},{"name":"Kerman","lat":30.28,"lon":57.08,"pop":577514},{"name":"Orūmīyeh","lat":37.55,"lon":45.08,"pop":577307},{"name":"Bahçelievler","lat":41,"lon":28.86,"pop":576799},{"name":"Tanta","lat":30.79,"lon":31,"pop":576648},{"name":"Jammu","lat":32.74,"lon":74.86,"pop":576198},{"name":"Iskandar Puteri","lat":1.39,"lon":103.62,"pop":575977},{"name":"Calamba","lat":14.21,"lon":121.17,"pop":575046},{"name":"Tlalpan","lat":19.3,"lon":-99.16,"pop":574577},{"name":"Herāt","lat":34.35,"lon":62.2,"pop":574300},{"name":"Gujrat","lat":32.57,"lon":74.08,"pop":574240},{"name":"Tomsk","lat":56.5,"lon":84.98,"pop":574002},{"name":"Juiz de Fora","lat":-21.76,"lon":-43.35,"pop":573285},{"name":"Umraniye","lat":41.02,"lon":29.12,"pop":573265},{"name":"Shihezi","lat":44.3,"lon":86.04,"pop":572772},{"name":"South Boston","lat":42.33,"lon":-71.05,"pop":571281},{"name":"Nakuru","lat":-0.31,"lon":36.07,"pop":570674},{"name":"Hamilton","lat":43.25,"lon":-79.85,"pop":569353},{"name":"Irbid","lat":32.56,"lon":35.85,"pop":569068},{"name":"Manchester","lat":53.48,"lon":-2.24,"pop":568996},{"name":"Kota Bharu","lat":6.12,"lon":102.24,"pop":568900},{"name":"Surrey","lat":49.11,"lon":-122.83,"pop":568322},{"name":"Meknes","lat":33.89,"lon":-5.55,"pop":568295},{"name":"Puente Alto","lat":-33.61,"lon":-70.58,"pop":568106},{"name":"Nyala","lat":12.05,"lon":24.88,"pop":565734},{"name":"Orenburg","lat":51.77,"lon":55.1,"pop":564773},{"name":"Albuquerque","lat":35.08,"lon":-106.65,"pop":564559},{"name":"Bokāro","lat":23.67,"lon":86.15,"pop":564319},{"name":"Asmara","lat":15.34,"lon":38.93,"pop":563930},{"name":"Sukkur","lat":27.7,"lon":68.86,"pop":563851},{"name":"Uberlândia","lat":-18.92,"lon":-48.28,"pop":563536},{"name":"Milwaukee","lat":43.04,"lon":-87.91,"pop":563531},{"name":"Chợ Lớn","lat":10.75,"lon":106.65,"pop":561000},{"name":"Wenchang","lat":19.55,"lon":110.8,"pop":560894},{"name":"Ile-Ife","lat":7.48,"lon":4.56,"pop":560000},{"name":"Gombe","lat":10.29,"lon":11.17,"pop":560000},{"name":"Hamhŭng","lat":39.92,"lon":127.54,"pop":559056},{"name":"Kemerovo","lat":55.35,"lon":86.1,"pop":558973},{"name":"Nasiriyah","lat":31.06,"lon":46.26,"pop":558400},{"name":"Bloemfontein","lat":-29.12,"lon":26.21,"pop":556637},{"name":"Sheffield","lat":53.38,"lon":-1.47,"pop":556500},{"name":"Dresden","lat":51.05,"lon":13.74,"pop":556227},{"name":"Santiago de Cuba","lat":20.02,"lon":-75.82,"pop":555865},{"name":"Siping","lat":43.16,"lon":124.38,"pop":555609},{"name":"Cuautitlán Izcalli","lat":19.64,"lon":-99.22,"pop":555163},{"name":"Benguela","lat":-12.58,"lon":13.4,"pop":555124},{"name":"Chuxiong","lat":25.04,"lon":101.55,"pop":555081},{"name":"Huaihua","lat":27.56,"lon":110,"pop":552622},{"name":"Chiclayo","lat":-6.77,"lon":-79.85,"pop":552508},{"name":"Bình Thạnh","lat":10.81,"lon":106.71,"pop":552164},{"name":"Zahedan","lat":29.5,"lon":60.86,"pop":551980},{"name":"Banqiao","lat":25.01,"lon":121.47,"pop":551221},{"name":"Nanded","lat":19.16,"lon":77.31,"pop":550564},{"name":"Kozhikode","lat":11.25,"lon":75.78,"pop":550440},{"name":"Ulanqab","lat":40.99,"lon":113.13,"pop":550231},{"name":"Cabinda","lat":-5.56,"lon":12.19,"pop":550000},{"name":"Ajegunle","lat":6.45,"lon":3.33,"pop":550000},{"name":"Pristina","lat":42.67,"lon":21.17,"pop":550000},{"name":"Jiamusi","lat":46.8,"lon":130.31,"pop":549549},{"name":"Korla","lat":41.76,"lon":86.15,"pop":549324},{"name":"Kolhāpur","lat":16.7,"lon":74.23,"pop":549236},{"name":"Porto Velho","lat":-8.76,"lon":-63.9,"pop":548952},{"name":"San Miguel de Tucumán","lat":-26.82,"lon":-65.21,"pop":548866},{"name":"Kuantan","lat":3.81,"lon":103.33,"pop":548014},{"name":"Sevastopol","lat":44.61,"lon":33.52,"pop":547820},{"name":"Nellore","lat":14.45,"lon":79.99,"pop":547621},{"name":"Mirpur Model Thana","lat":23.81,"lon":90.36,"pop":546503},{"name":"Bremen","lat":53.08,"lon":8.81,"pop":546501},{"name":"Wanning","lat":18.8,"lon":110.38,"pop":545992},{"name":"Owerri","lat":5.48,"lon":7.03,"pop":545000},{"name":"Kota Kuala Muda","lat":5.59,"lon":100.37,"pop":544984},{"name":"Sungai Petani","lat":5.65,"lon":100.49,"pop":544851},{"name":"Xinzhou","lat":38.41,"lon":112.73,"pop":544683},{"name":"Kotō","lat":32.78,"lon":130.75,"pop":543730},{"name":"Kalaburagi","lat":17.34,"lon":76.84,"pop":543147},{"name":"Tucson","lat":32.22,"lon":-110.93,"pop":542629},{"name":"Selayang Baru Utara","lat":3.25,"lon":101.67,"pop":542409},{"name":"Vilnius","lat":54.69,"lon":25.28,"pop":542366},{"name":"Ajmer","lat":26.45,"lon":74.64,"pop":542321},{"name":"Pingdu","lat":36.78,"lon":119.95,"pop":542234},{"name":"Fresno","lat":36.75,"lon":-119.77,"pop":542107},{"name":"Mbeya","lat":-8.9,"lon":33.45,"pop":541603},{"name":"Calabar","lat":4.96,"lon":8.33,"pop":540000},{"name":"Oujda","lat":34.68,"lon":-1.91,"pop":539711},{"name":"Novokuznetsk","lat":53.76,"lon":87.14,"pop":539616},{"name":"Ryazan’","lat":54.63,"lon":39.7,"pop":538962},{"name":"Ji’an","lat":27.12,"lon":114.98,"pop":538699},{"name":"Sahiwal","lat":30.67,"lon":73.1,"pop":538344},{"name":"Mersin","lat":36.81,"lon":34.64,"pop":537842},{"name":"Leeds","lat":53.8,"lon":-1.55,"pop":536280},{"name":"Poznań","lat":52.41,"lon":16.93,"pop":536151},{"name":"Guli","lat":28.88,"lon":120.03,"pop":536000},{"name":"Aqsu","lat":41.18,"lon":80.28,"pop":535657},{"name":"Ebute Ikorodu","lat":6.6,"lon":3.49,"pop":535619},{"name":"Tanggu","lat":39.02,"lon":117.65,"pop":535298},{"name":"Pasir Gudang","lat":1.46,"lon":103.91,"pop":534659},{"name":"Astrakhan","lat":46.35,"lon":48.04,"pop":533925},{"name":"Okara","lat":30.81,"lon":73.45,"pop":533693},{"name":"Nansana","lat":0.36,"lon":32.53,"pop":532800},{"name":"Kimhae","lat":35.23,"lon":128.88,"pop":531966},{"name":"Ar Raqqah","lat":35.95,"lon":39.01,"pop":531952},{"name":"Québec","lat":46.81,"lon":-71.21,"pop":531902},{"name":"Cuauhtémoc","lat":19.45,"lon":-99.15,"pop":531831},{"name":"Shangluo","lat":33.87,"lon":109.93,"pop":531696},{"name":"Himeji","lat":34.82,"lon":134.7,"pop":530495},{"name":"Ibagué","lat":4.44,"lon":-75.2,"pop":529635},{"name":"Antwerpen","lat":51.22,"lon":4.4,"pop":529247},{"name":"Assiut","lat":27.18,"lon":31.18,"pop":528669},{"name":"Hamadān","lat":34.8,"lon":48.51,"pop":528256},{"name":"Qionghai","lat":19.24,"lon":110.46,"pop":528238},{"name":"Cangzhou","lat":38.31,"lon":116.85,"pop":527681},{"name":"Mohāmmadpur","lat":24.9,"lon":88.53,"pop":527571},{"name":"Surakarta","lat":-7.56,"lon":110.83,"pop":526870},{"name":"San Salvador","lat":13.69,"lon":-89.19,"pop":525990},{"name":"Beihai","lat":21.48,"lon":109.12,"pop":525329},{"name":"Van","lat":38.49,"lon":43.38,"pop":525016},{"name":"Sacramento","lat":38.58,"lon":-121.49,"pop":524943},{"name":"Thủ Đức","lat":10.85,"lon":106.77,"pop":524670},{"name":"Üsküdar","lat":41.02,"lon":29.01,"pop":524452},{"name":"Penza","lat":53.2,"lon":45.01,"pop":523553},{"name":"Mazār-e Sharīf","lat":36.71,"lon":67.11,"pop":523300},{"name":"Kandahār","lat":31.61,"lon":65.71,"pop":523300},{"name":"Hengshui","lat":37.74,"lon":115.68,"pop":522147},{"name":"Dehradun","lat":30.32,"lon":78.03,"pop":522081},{"name":"Erode","lat":11.34,"lon":77.73,"pop":521891},{"name":"Lyon","lat":45.75,"lon":4.85,"pop":520774},{"name":"Salta","lat":-24.81,"lon":-65.42,"pop":520683},{"name":"Serra","lat":-20.13,"lon":-40.31,"pop":520653},{"name":"Esenler","lat":41.04,"lon":28.88,"pop":520235},{"name":"Qui Nhon","lat":13.78,"lon":109.22,"pop":519208},{"name":"Al Fayyum","lat":29.31,"lon":30.84,"pop":519047},{"name":"Durgapur","lat":23.52,"lon":87.31,"pop":518872},{"name":"Utsunomiya","lat":36.57,"lon":139.88,"pop":518757},{"name":"Victoria de Durango","lat":24.02,"lon":-104.66,"pop":518709},{"name":"Lisbon","lat":38.73,"lon":-9.15,"pop":517802},{"name":"Rahim Yar Khan","lat":28.42,"lon":70.3,"pop":517000},{"name":"Ulhasnagar","lat":19.22,"lon":73.15,"pop":516584},{"name":"Guangyuan","lat":32.44,"lon":105.82,"pop":516424},{"name":"Loni","lat":28.75,"lon":77.29,"pop":516082},{"name":"Siliguri","lat":26.71,"lon":88.43,"pop":515574},{"name":"Nürnberg","lat":49.45,"lon":11.08,"pop":515543},{"name":"Ujjain","lat":23.18,"lon":75.78,"pop":515215},{"name":"Hannover","lat":52.37,"lon":9.73,"pop":515140},{"name":"Edinburgh","lat":55.95,"lon":-3.2,"pop":514990},{"name":"Āzādshahr","lat":34.79,"lon":48.57,"pop":514102},{"name":"Macapá","lat":0.04,"lon":-51.07,"pop":512902},{"name":"Xianning","lat":29.84,"lon":114.32,"pop":512517},{"name":"Toulouse","lat":43.6,"lon":1.44,"pop":511684},{"name":"Thembisa","lat":-26,"lon":28.23,"pop":511655},{"name":"Matsuyama","lat":33.84,"lon":132.77,"pop":511192},{"name":"Campos dos Goytacazes","lat":-21.75,"lon":-41.33,"pop":511168},{"name":"Bilimora","lat":20.77,"lon":72.96,"pop":510879},{"name":"Kasur","lat":31.12,"lon":74.45,"pop":510875},{"name":"Atlanta","lat":33.75,"lon":-84.39,"pop":510823},{"name":"Aparecida de Goiânia","lat":-16.82,"lon":-49.24,"pop":510770},{"name":"Heroica Matamoros","lat":25.88,"lon":-97.5,"pop":510739},{"name":"Makati City","lat":14.55,"lon":121.03,"pop":510383},{"name":"Tonghua","lat":41.72,"lon":125.93,"pop":510000},{"name":"Mianzhu, Deyang, Sichuan","lat":31.34,"lon":104.22,"pop":510000},{"name":"Naberezhnyye Chelny","lat":55.74,"lon":52.42,"pop":509870},{"name":"Lipetsk","lat":52.59,"lon":39.55,"pop":509735},{"name":"Kikwit","lat":-5.04,"lon":18.82,"pop":509367},{"name":"Florianópolis","lat":-27.6,"lon":-48.55,"pop":508826},{"name":"Banan","lat":29.38,"lon":106.54,"pop":508703},{"name":"Newcastle","lat":-32.93,"lon":151.78,"pop":508437},{"name":"Tuen Mun","lat":22.39,"lon":113.97,"pop":507900},{"name":"Zhangye","lat":38.93,"lon":100.45,"pop":507433},{"name":"Kirov","lat":58.6,"lon":49.66,"pop":507155},{"name":"Kashgar","lat":39.47,"lon":75.99,"pop":506640},{"name":"Mukim Pulai","lat":1.53,"lon":103.67,"pop":505661},{"name":"Najrān","lat":17.49,"lon":44.13,"pop":505652},{"name":"Karol Bāgh","lat":28.65,"lon":77.19,"pop":505241},{"name":"Zhoukou","lat":33.63,"lon":114.63,"pop":505171},{"name":"Leipzig","lat":51.34,"lon":12.37,"pop":504971},{"name":"Pingliang","lat":35.54,"lon":106.69,"pop":504848},{"name":"Kalininskiy","lat":60,"lon":30.39,"pop":504641},{"name":"Duisburg","lat":51.43,"lon":6.77,"pop":504358},{"name":"Āsansol","lat":23.68,"lon":86.98,"pop":504271},{"name":"Arāk","lat":34.09,"lon":49.7,"pop":503647},{"name":"Maipú","lat":-33.51,"lon":-70.77,"pop":503635},{"name":"Homyel'","lat":52.43,"lon":30.98,"pop":501102},{"name":"Aktobe","lat":50.28,"lon":57.21,"pop":500757},{"name":"Kota Kinabalu","lat":5.97,"lon":116.07,"pop":500421},{"name":"Talatona","lat":-8.92,"lon":13.19,"pop":500000},{"name":"Kampung Larkin Lama","lat":1.5,"lon":103.74,"pop":500000},{"name":"Kota Damansara","lat":3.15,"lon":101.58,"pop":500000},{"name":"Mangaluru","lat":12.92,"lon":74.86,"pop":499487},{"name":"Zhucheng","lat":35.99,"lon":119.4,"pop":499285},{"name":"Santa Marta","lat":11.24,"lon":-74.19,"pop":499192},{"name":"Matsudo","lat":35.78,"lon":139.9,"pop":498575},{"name":"Hāthazāri","lat":22.51,"lon":91.81,"pop":498179},{"name":"Lapu-Lapu City","lat":10.31,"lon":123.95,"pop":497813},{"name":"Karagandy","lat":49.8,"lon":73.1,"pop":497777},{"name":"Loudi","lat":27.73,"lon":111.99,"pop":497171},{"name":"Liverpool","lat":53.41,"lon":-2.98,"pop":496770},{"name":"Ichikawa","lat":35.73,"lon":139.91,"pop":496676},{"name":"Bāndarban","lat":22.2,"lon":92.22,"pop":495272},{"name":"Sha Tin","lat":22.38,"lon":114.18,"pop":495200},{"name":"Dera Ghazi Khan","lat":30.05,"lon":70.64,"pop":494464},{"name":"Higashiosaka","lat":34.67,"lon":135.58,"pop":493940},{"name":"Cheboksary","lat":56.13,"lon":47.25,"pop":492331},{"name":"Pohang","lat":36.03,"lon":129.36,"pop":492041},{"name":"Shanwei","lat":22.78,"lon":115.35,"pop":491766},{"name":"Montería","lat":8.75,"lon":-75.88,"pop":490935},{"name":"Ruiru","lat":-1.15,"lon":36.96,"pop":490120},{"name":"Valledupar","lat":10.47,"lon":-73.25,"pop":490075},{"name":"Belagavi","lat":15.85,"lon":74.5,"pop":490045},{"name":"Ajman","lat":25.4,"lon":55.48,"pop":490035},{"name":"Jianshui","lat":24.28,"lon":101.22,"pop":490000},{"name":"Port Sudan","lat":19.62,"lon":37.22,"pop":489725},{"name":"Toluca","lat":19.29,"lon":-99.65,"pop":489333},{"name":"Ciudad López Mateos","lat":19.56,"lon":-99.26,"pop":489160},{"name":"Al Khuşūş","lat":30.15,"lon":31.32,"pop":488904},{"name":"Jeju City","lat":33.51,"lon":126.52,"pop":488844},{"name":"Gdańsk","lat":54.35,"lon":18.65,"pop":487371},{"name":"Miami","lat":25.77,"lon":-80.19,"pop":487014},{"name":"Omaha","lat":41.26,"lon":-95.94,"pop":486051},{"name":"Nishinomiya","lat":34.72,"lon":135.33,"pop":485587},{"name":"Masina","lat":-4.38,"lon":15.39,"pop":485167},{"name":"Sahāranpur","lat":29.97,"lon":77.55,"pop":484873},{"name":"Vellore","lat":12.92,"lon":79.13,"pop":484690},{"name":"Piura","lat":-5.18,"lon":-80.66,"pop":484475},{"name":"Kurashiki","lat":34.58,"lon":133.77,"pop":483576},{"name":"Angeles City","lat":15.15,"lon":120.58,"pop":483452},{"name":"Bhātpāra","lat":22.87,"lon":88.4,"pop":483129},{"name":"Jijiga","lat":9.35,"lon":42.8,"pop":483000},{"name":"Tula","lat":54.2,"lon":37.62,"pop":482873},{"name":"Najaf","lat":32.03,"lon":44.35,"pop":482576},{"name":"Raleigh","lat":35.77,"lon":-78.64,"pop":482295},{"name":"Imus","lat":14.43,"lon":120.94,"pop":481949},{"name":"Xichang","lat":27.9,"lon":102.26,"pop":481796},{"name":"Malegaon","lat":20.55,"lon":74.53,"pop":481228},{"name":"São José do Rio Preto","lat":-20.82,"lon":-49.38,"pop":480393},{"name":"Okene","lat":7.55,"lon":6.24,"pop":479178},{"name":"Uijeongbu-si","lat":37.74,"lon":127.05,"pop":479141},{"name":"Bristol","lat":51.46,"lon":-2.6,"pop":479024},{"name":"East London","lat":-33.02,"lon":27.91,"pop":478676},{"name":"Chéngguān Qū","lat":29.64,"lon":91.04,"pop":478275},{"name":"Yazd","lat":31.9,"lon":54.37,"pop":477905},{"name":"Hargeysa","lat":9.56,"lon":44.07,"pop":477876},{"name":"Ōita","lat":33.23,"lon":131.6,"pop":477715},{"name":"Mauá","lat":-23.67,"lon":-46.46,"pop":477552},{"name":"Jincheng","lat":35.5,"lon":112.83,"pop":476945},{"name":"Taoyuan","lat":24.99,"lon":121.32,"pop":475798},{"name":"Eldoret","lat":0.52,"lon":35.27,"pop":475716},{"name":"Kansas City","lat":39.1,"lon":-94.58,"pop":475378},{"name":"Yan’an","lat":36.6,"lon":109.49,"pop":475234},{"name":"Kaliningrad","lat":54.71,"lon":20.51,"pop":475056},{"name":"Skopje","lat":42,"lon":21.43,"pop":474889},{"name":"Vereeniging","lat":-26.67,"lon":27.93,"pop":474681},{"name":"The Hague","lat":52.08,"lon":4.3,"pop":474292},{"name":"Long Beach","lat":33.77,"lon":-118.19,"pop":474140},{"name":"Gaya","lat":24.8,"lon":85,"pop":474093},{"name":"Iloilo","lat":10.7,"lon":122.56,"pop":473728},{"name":"Shouguang","lat":36.88,"lon":118.74,"pop":473620},{"name":"Jingdezhen","lat":29.29,"lon":117.21,"pop":473561},{"name":"Murcia","lat":37.99,"lon":-1.13,"pop":471982},{"name":"Mesa","lat":33.42,"lon":-111.82,"pop":471825},{"name":"Halifax","lat":44.64,"lon":-63.58,"pop":471559},{"name":"Morogoro","lat":-6.82,"lon":37.66,"pop":471409},{"name":"Marikina City","lat":14.65,"lon":121.11,"pop":471323},{"name":"Kenitra","lat":34.26,"lon":-6.58,"pop":470949},{"name":"Seeb","lat":23.67,"lon":58.19,"pop":470878},{"name":"Jiaojiang","lat":28.7,"lon":121.47,"pop":470804},{"name":"Mykolayiv","lat":46.98,"lon":31.99,"pop":470011},{"name":"Fukuyama","lat":34.48,"lon":133.37,"pop":468812},{"name":"Staten Island","lat":40.56,"lon":-74.14,"pop":468730},{"name":"Nanping","lat":26.65,"lon":118.17,"pop":467875},{"name":"Pereira","lat":4.81,"lon":-75.69,"pop":467269},{"name":"Ciudad Apodaca","lat":25.78,"lon":-100.19,"pop":467157},{"name":"São João de Meriti","lat":-22.8,"lon":-43.37,"pop":466536},{"name":"Ambattur","lat":13.1,"lon":80.16,"pop":466205},{"name":"Belford Roxo","lat":-22.76,"lon":-43.4,"pop":466096},{"name":"Kanazawa","lat":36.6,"lon":136.62,"pop":466029},{"name":"Gonder","lat":12.6,"lon":37.47,"pop":466000},{"name":"Mandaluyong City","lat":14.58,"lon":121.04,"pop":465902},{"name":"Mixco","lat":14.63,"lon":-90.61,"pop":465773},{"name":"Longshan","lat":42.89,"lon":125.14,"pop":465249},{"name":"Ikare","lat":7.53,"lon":5.75,"pop":465000},{"name":"Vũng Tàu","lat":10.35,"lon":107.08,"pop":464860},{"name":"Maracay","lat":10.25,"lon":-67.59,"pop":464700},{"name":"Tamale","lat":9.4,"lon":-0.84,"pop":464316},{"name":"Heyuan","lat":23.73,"lon":114.68,"pop":463907},{"name":"Dĩ An","lat":10.91,"lon":106.77,"pop":463023},{"name":"Kira","lat":0.4,"lon":32.63,"pop":462900},{"name":"Esna","lat":25.29,"lon":32.55,"pop":462787},{"name":"Joinville","lat":-26.3,"lon":-48.85,"pop":461304},{"name":"Huangshan","lat":29.71,"lon":118.31,"pop":460786},{"name":"Ḩamāh","lat":35.13,"lon":36.76,"pop":460602},{"name":"Jalgaon","lat":21,"lon":75.57,"pop":460228},{"name":"Kurnool","lat":15.83,"lon":78.04,"pop":460184},{"name":"Yola","lat":9.21,"lon":12.48,"pop":460000},{"name":"Rạch Giá","lat":10.01,"lon":105.08,"pop":459860},{"name":"Amagasaki","lat":34.72,"lon":135.42,"pop":459593},{"name":"Santo Domingo de los Colorados","lat":-0.25,"lon":-79.18,"pop":458580},{"name":"Ţarţūs","lat":34.89,"lon":35.89,"pop":458327},{"name":"Karabağlar","lat":38.38,"lon":27.13,"pop":458000},{"name":"Mek'ele","lat":13.5,"lon":39.48,"pop":457900},{"name":"Nazrēt","lat":8.55,"lon":39.27,"pop":456900},{"name":"Colorado Springs","lat":38.83,"lon":-104.82,"pop":456568},{"name":"Niterói","lat":-22.88,"lon":-43.1,"pop":456456},{"name":"Huancayo","lat":-12.07,"lon":-75.21,"pop":456250},{"name":"Al Hillah","lat":32.46,"lon":44.42,"pop":455700},{"name":"Mbandaka","lat":0.05,"lon":18.26,"pop":455011},{"name":"Malanje","lat":-9.54,"lon":16.34,"pop":455000},{"name":"Namp’o","lat":38.74,"lon":125.41,"pop":455000},{"name":"Ciudad General Escobedo","lat":25.8,"lon":-100.32,"pop":454967},{"name":"Bacolod City","lat":10.67,"lon":122.95,"pop":454898},{"name":"Virginia Beach","lat":36.85,"lon":-75.98,"pop":454808},{"name":"Wafangdian","lat":39.62,"lon":122.01,"pop":454338},{"name":"Mansilingan","lat":10.63,"lon":122.98,"pop":454150},{"name":"Kahama","lat":-3.83,"lon":32.6,"pop":453654},{"name":"Hsinchu","lat":24.8,"lon":120.97,"pop":453536},{"name":"Katsushika","lat":35.73,"lon":139.85,"pop":453093},{"name":"Rāmgundam","lat":18.8,"lon":79.45,"pop":452261},{"name":"Batman","lat":37.89,"lon":41.13,"pop":452157},{"name":"Manado","lat":1.48,"lon":124.85,"pop":451916},{"name":"Lishui","lat":28.46,"lon":119.91,"pop":451418},{"name":"Udaipur","lat":24.59,"lon":73.71,"pop":451100},{"name":"Warder","lat":6.97,"lon":45.34,"pop":450400},{"name":"Cilegon","lat":-6.01,"lon":106.05,"pop":450271},{"name":"Wenshan City","lat":23.36,"lon":104.25,"pop":450000},{"name":"Eslamshahr","lat":35.55,"lon":51.24,"pop":450000},{"name":"Juba","lat":4.85,"lon":31.58,"pop":450000},{"name":"Muratpaşa","lat":36.89,"lon":30.76,"pop":450000},{"name":"Bắc Giang","lat":21.27,"lon":106.19,"pop":450000},{"name":"Şanlıurfa","lat":37.17,"lon":38.79,"pop":449549},{"name":"Chengde","lat":40.95,"lon":117.96,"pop":449325},{"name":"Kursk","lat":51.73,"lon":36.18,"pop":448733},{"name":"Maheshtala","lat":22.51,"lon":88.25,"pop":448317},{"name":"Nam Định","lat":20.43,"lon":106.18,"pop":448225},{"name":"Constantine","lat":36.37,"lon":6.61,"pop":448028},{"name":"Patiāla","lat":30.34,"lon":76.39,"pop":446246},{"name":"Boksburg","lat":-26.21,"lon":28.26,"pop":445168},{"name":"Basuo","lat":19.1,"lon":108.67,"pop":444458},{"name":"Ensenada","lat":31.87,"lon":-116.6,"pop":443807},{"name":"Elazığ","lat":38.67,"lon":39.22,"pop":443363},{"name":"Jundiaí","lat":-23.19,"lon":-46.88,"pop":443221},{"name":"Kupang","lat":-10.17,"lon":123.61,"pop":442758},{"name":"Xochimilco","lat":19.25,"lon":-99.1,"pop":442178},{"name":"Carrefour","lat":18.54,"lon":-72.4,"pop":442156},{"name":"Shyamnagar","lat":22.83,"lon":88.37,"pop":441956},{"name":"Dasmariñas","lat":14.33,"lon":120.94,"pop":441876},{"name":"Zhangjiajie","lat":29.13,"lon":110.48,"pop":441804},{"name":"Korhogo","lat":9.46,"lon":-5.63,"pop":440926},{"name":"Fujisawa","lat":35.35,"lon":139.48,"pop":439728},{"name":"Bissau","lat":11.86,"lon":-15.6,"pop":439704},{"name":"Sandakan","lat":5.84,"lon":118.12,"pop":439050},{"name":"Mawlamyine","lat":16.49,"lon":97.63,"pop":438861},{"name":"Laval","lat":45.57,"lon":-73.69,"pop":438366},{"name":"Palma","lat":39.57,"lon":2.65,"pop":438234},{"name":"Sunch’ŏn","lat":39.43,"lon":125.93,"pop":437000},{"name":"Sultangazi","lat":41.11,"lon":28.87,"pop":436935},{"name":"Uyo","lat":5.05,"lon":7.93,"pop":436606},{"name":"Bei’an","lat":48.27,"lon":126.6,"pop":436444},{"name":"Davangere","lat":14.47,"lon":75.93,"pop":435128},{"name":"Ado-Ekiti","lat":7.62,"lon":5.22,"pop":435000},{"name":"Manizales","lat":5.07,"lon":-75.51,"pop":434403},{"name":"Masan","lat":35.13,"lon":126.83,"pop":434371},{"name":"Buôn Ma Thuột","lat":12.67,"lon":108.04,"pop":434256},{"name":"Ananindeua","lat":-1.37,"lon":-48.37,"pop":433956},{"name":"Stavropol’","lat":45.03,"lon":41.96,"pop":433931},{"name":"Santos","lat":-23.96,"lon":-46.33,"pop":433656},{"name":"Kashiwa","lat":35.86,"lon":139.98,"pop":433436},{"name":"Ogbomoso","lat":8.13,"lon":4.24,"pop":433030},{"name":"Tel Aviv","lat":32.08,"lon":34.78,"pop":432892},{"name":"Goma","lat":-1.67,"lon":29.23,"pop":432587},{"name":"Buenaventura","lat":3.58,"lon":-77,"pop":432385},{"name":"Welkom","lat":-27.98,"lon":26.74,"pop":431944},{"name":"Sham Shui Po","lat":22.33,"lon":114.16,"pop":431090},{"name":"Machida","lat":35.54,"lon":139.45,"pop":431079},{"name":"Venustiano Carranza","lat":19.44,"lon":-99.1,"pop":430978},{"name":"Zagazig","lat":30.59,"lon":31.5,"pop":430445},{"name":"Mataram","lat":-8.58,"lon":116.12,"pop":429651},{"name":"Ismailia","lat":30.6,"lon":32.27,"pop":429465},{"name":"Ningde","lat":26.66,"lon":119.52,"pop":429260},{"name":"Akola","lat":20.71,"lon":77,"pop":428857},{"name":"Cusco","lat":-13.53,"lon":-71.97,"pop":428450},{"name":"Jiuquan","lat":39.74,"lon":98.52,"pop":428346},{"name":"Veracruz","lat":19.18,"lon":-96.14,"pop":428323},{"name":"East Jerusalem","lat":31.78,"lon":35.23,"pop":428304},{"name":"Bryansk","lat":53.27,"lon":34.32,"pop":427236},{"name":"Maltepe","lat":40.94,"lon":29.16,"pop":427040},{"name":"Kuala Terengganu","lat":5.33,"lon":103.14,"pop":426500},{"name":"Toyota","lat":35.08,"lon":137.15,"pop":426162},{"name":"Matadi","lat":-5.84,"lon":13.46,"pop":425662},{"name":"Al Kharj","lat":24.16,"lon":47.33,"pop":425300},{"name":"Wong Tai Sin","lat":22.35,"lon":114.18,"pop":425235},{"name":"Minna","lat":9.62,"lon":6.55,"pop":425000},{"name":"Mandaluyong","lat":14.58,"lon":121.04,"pop":425000},{"name":"Xalapa de Enríquez","lat":19.53,"lon":-96.92,"pop":424755},{"name":"Cazenga","lat":-8.82,"lon":13.31,"pop":424528},{"name":"Rajpur Sonarpur","lat":22.44,"lon":88.43,"pop":424368},{"name":"Bratislava","lat":48.15,"lon":17.11,"pop":423737},{"name":"Taman Petaling","lat":3.2,"lon":101.65,"pop":423062},{"name":"Shinagawa","lat":33.64,"lon":133.01,"pop":422488},{"name":"Al Ḩasakah","lat":36.5,"lon":40.75,"pop":422445},{"name":"Luxor","lat":25.7,"lon":32.64,"pop":422407},{"name":"London","lat":42.98,"lon":-81.23,"pop":422324},{"name":"Awasa","lat":7.06,"lon":38.48,"pop":422200},{"name":"Chimoio","lat":-19.12,"lon":33.48,"pop":422046},{"name":"Tando Allahyar","lat":25.46,"lon":68.72,"pop":421923},{"name":"Daloa","lat":6.88,"lon":-6.45,"pop":421871},{"name":"Dingxi","lat":35.57,"lon":104.62,"pop":420614},{"name":"Bamenda","lat":5.96,"lon":10.15,"pop":420445},{"name":"Tver","lat":56.86,"lon":35.9,"pop":420065},{"name":"Thái Nguyên","lat":21.59,"lon":105.85,"pop":420000},{"name":"Boa Vista","lat":2.82,"lon":-60.67,"pop":419652},{"name":"Rio Branco","lat":-9.97,"lon":-67.81,"pop":419452},{"name":"Oakland","lat":37.8,"lon":-122.27,"pop":419267},{"name":"Korba","lat":22.35,"lon":82.7,"pop":419146},{"name":"Takamatsu","lat":34.33,"lon":134.05,"pop":418994},{"name":"Kowloon City","lat":22.33,"lon":114.19,"pop":418732},{"name":"Tirana","lat":41.33,"lon":19.82,"pop":418495},{"name":"San Juan","lat":18.47,"lon":-66.11,"pop":418140},{"name":"Alor Setar","lat":6.12,"lon":100.36,"pop":417800},{"name":"Tongchuan","lat":34.9,"lon":108.95,"pop":417740},{"name":"Pasay","lat":14.54,"lon":121,"pop":416522},{"name":"Nuevo Laredo","lat":27.48,"lon":-99.52,"pop":416055},{"name":"Toyama","lat":36.7,"lon":137.22,"pop":415844},{"name":"Tétouan","lat":35.58,"lon":-5.37,"pop":415810},{"name":"Zürich","lat":47.37,"lon":8.55,"pop":415367},{"name":"Việt Trì","lat":21.32,"lon":105.4,"pop":415280},{"name":"Azcapotzalco","lat":19.49,"lon":-99.19,"pop":414711},{"name":"Tampa","lat":27.95,"lon":-82.46,"pop":414547},{"name":"Montes Claros","lat":-16.73,"lon":-43.86,"pop":414240},{"name":"Bunamwaya","lat":0.25,"lon":32.56,"pop":413400},{"name":"Magnitogorsk","lat":53.4,"lon":59.01,"pop":413351},{"name":"Tulsa","lat":36.15,"lon":-95.99,"pop":413066},{"name":"Jhānsi","lat":25.46,"lon":78.58,"pop":412927},{"name":"Tseung Kwan O","lat":22.33,"lon":114.25,"pop":412900},{"name":"Ciudad Bolívar","lat":8.12,"lon":-63.55,"pop":412619},{"name":"Kampung Kangkar Teberau","lat":1.53,"lon":103.75,"pop":412373},{"name":"Koumassi","lat":5.3,"lon":-3.97,"pop":412282},{"name":"San Nicolás de los Garza","lat":25.74,"lon":-100.3,"pop":412199},{"name":"Christchurch","lat":-43.53,"lon":172.63,"pop":412000},{"name":"Guyuan","lat":36.01,"lon":106.28,"pop":411854},{"name":"Wandsbek","lat":53.58,"lon":10.08,"pop":411422},{"name":"Minneapolis","lat":44.98,"lon":-93.26,"pop":410939},{"name":"Thoothukudi","lat":8.77,"lon":78.13,"pop":410760},{"name":"Ardabīl","lat":38.25,"lon":48.29,"pop":410753},{"name":"Ballari","lat":15.14,"lon":76.92,"pop":410445},{"name":"Chaoyang","lat":41.57,"lon":120.46,"pop":410005},{"name":"Gaza","lat":31.5,"lon":34.47,"pop":410000},{"name":"Yokosuka","lat":35.28,"lon":139.67,"pop":409478},{"name":"Kom Ombo","lat":24.48,"lon":32.95,"pop":409311},{"name":"Nagasaki","lat":32.75,"lon":129.88,"pop":409118},{"name":"Gujangbagh","lat":37.11,"lon":79.93,"pop":408894},{"name":"Tonalá","lat":20.62,"lon":-103.24,"pop":408759},{"name":"Panamá","lat":8.99,"lon":-79.52,"pop":408168},{"name":"Piracicaba","lat":-22.73,"lon":-47.65,"pop":407252},{"name":"Uvira","lat":-3.4,"lon":29.14,"pop":407092},{"name":"Hirakata","lat":34.81,"lon":135.65,"pop":406331},{"name":"Ivanovo","lat":57,"lon":40.97,"pop":406113},{"name":"Cumaná","lat":10.46,"lon":-64.18,"pop":405626},{"name":"Newcastle","lat":-27.76,"lon":29.93,"pop":404838},{"name":"Gumi","lat":36.11,"lon":128.34,"pop":404691},{"name":"Jayapura","lat":-2.53,"lon":140.72,"pop":404004},{"name":"Jixi","lat":45.29,"lon":130.96,"pop":403759},{"name":"Kuching","lat":1.55,"lon":110.33,"pop":402738},{"name":"Gifu","lat":35.42,"lon":136.76,"pop":402557},{"name":"Caruaru","lat":-8.28,"lon":-35.98,"pop":402290},{"name":"Tongling","lat":30.95,"lon":117.78,"pop":402062},{"name":"Taoyuan City","lat":24.99,"lon":121.3,"pop":402014},{"name":"Tarlac City","lat":15.48,"lon":120.6,"pop":401892},{"name":"Toyonaka","lat":34.78,"lon":135.47,"pop":401558},{"name":"Kassala","lat":15.45,"lon":36.4,"pop":401477},{"name":"Miyazaki","lat":31.92,"lon":131.42,"pop":401339},{"name":"Lekki","lat":6.41,"lon":4.09,"pop":401272},{"name":"Antofagasta","lat":-23.65,"lon":-70.4,"pop":401096},{"name":"Wah Cantt","lat":33.77,"lon":72.75,"pop":400733},{"name":"Bhāgalpur","lat":25.24,"lon":86.97,"pop":400146},{"name":"Agartala","lat":23.84,"lon":91.28,"pop":400004},{"name":"Dayrah","lat":25.27,"lon":55.3,"pop":400000},{"name":"West Jerusalem","lat":31.78,"lon":35.22,"pop":400000},{"name":"Bida","lat":9.08,"lon":6.01,"pop":400000},{"name":"Saltivka","lat":50.02,"lon":36.35,"pop":400000},{"name":"Bunia","lat":1.56,"lon":30.25,"pop":399282},{"name":"Quận Mười","lat":10.77,"lon":106.67,"pop":399000},{"name":"Kisumu","lat":-0.1,"lon":34.76,"pop":397957},{"name":"Luhansk","lat":48.57,"lon":39.31,"pop":397677},{"name":"Barinas","lat":8.62,"lon":-70.23,"pop":397279},{"name":"Wichita","lat":37.69,"lon":-97.34,"pop":396119},{"name":"Al Hoceïma","lat":35.25,"lon":-3.94,"pop":395644},{"name":"Szczecin","lat":53.43,"lon":14.55,"pop":395513},{"name":"Vila Velha","lat":-20.33,"lon":-40.29,"pop":394930},{"name":"Bologna","lat":44.49,"lon":11.34,"pop":394843},{"name":"Sejong","lat":36.59,"lon":127.29,"pop":394630},{"name":"Samsun","lat":41.28,"lon":36.34,"pop":394050},{"name":"Tallinn","lat":59.44,"lon":24.75,"pop":394024},{"name":"Tanga","lat":-5.07,"lon":39.1,"pop":393429},{"name":"El Obeid","lat":13.18,"lon":30.22,"pop":393311},{"name":"Diadema","lat":-23.69,"lon":-46.62,"pop":393237},{"name":"Saurimo","lat":-9.66,"lon":20.39,"pop":393000},{"name":"Bello","lat":6.34,"lon":-75.56,"pop":392939},{"name":"Pasto","lat":1.21,"lon":-77.28,"pop":392930},{"name":"Gaomi","lat":36.38,"lon":119.75,"pop":391986},{"name":"Santa Fe","lat":-31.65,"lon":-60.71,"pop":391164},{"name":"San-Pédro","lat":4.75,"lon":-6.64,"pop":390654},{"name":"Makurdi","lat":7.73,"lon":8.52,"pop":390000},{"name":"Takoradi","lat":4.9,"lon":-1.76,"pop":389114},{"name":"Samut Prakan","lat":13.6,"lon":100.6,"pop":388920},{"name":"Arlington","lat":32.74,"lon":-97.11,"pop":388125},{"name":"Khamis Mushait","lat":18.3,"lon":42.73,"pop":387553},{"name":"Ambato","lat":-1.25,"lon":-78.62,"pop":387309},{"name":"Carapicuíba","lat":-23.52,"lon":-46.83,"pop":386984},{"name":"Petrolina","lat":-9.4,"lon":-40.5,"pop":386791},{"name":"Ojo de Agua","lat":19.68,"lon":-99.01,"pop":386290},{"name":"Windhoek","lat":-22.56,"lon":17.08,"pop":386219},{"name":"Abomey-Calavi","lat":6.45,"lon":2.36,"pop":385755},{"name":"Bochum","lat":51.48,"lon":7.22,"pop":385729},{"name":"Suita","lat":34.76,"lon":135.52,"pop":385567},{"name":"Benito Juárez","lat":19.37,"lon":-99.16,"pop":385439},{"name":"Sector 3","lat":44.42,"lon":26.17,"pop":385439},{"name":"Kahramanmaraş","lat":37.58,"lon":36.93,"pop":384953},{"name":"Chongzuo","lat":22.38,"lon":107.37,"pop":384905},{"name":"Grajaú","lat":-23.77,"lon":-46.67,"pop":384873},{"name":"Okazaki","lat":34.95,"lon":137.17,"pop":384654},{"name":"Xico","lat":19.27,"lon":-98.95,"pop":384327},{"name":"Iztacalco","lat":19.4,"lon":-99.1,"pop":384326},{"name":"Kākināda","lat":16.96,"lon":82.24,"pop":384182},{"name":"Betim","lat":-19.97,"lon":-44.2,"pop":384000},{"name":"Las Palmas de Gran Canaria","lat":28.1,"lon":-15.42,"pop":383516},{"name":"Cotabato","lat":7.22,"lon":124.25,"pop":383383},{"name":"Bawshar","lat":23.58,"lon":58.4,"pop":383257},{"name":"Latur","lat":18.4,"lon":76.57,"pop":382940},{"name":"Delmas","lat":18.54,"lon":-72.3,"pop":382920},{"name":"Tanzhou","lat":22.26,"lon":113.47,"pop":382445},{"name":"Wellington","lat":-41.29,"lon":174.78,"pop":381900},{"name":"Mazatlán","lat":23.22,"lon":-106.42,"pop":381583},{"name":"Caxias do Sul","lat":-29.17,"lon":-51.18,"pop":381270},{"name":"Nizhny Tagil","lat":57.92,"lon":59.97,"pop":381116},{"name":"Irapuato","lat":20.68,"lon":-101.36,"pop":380941},{"name":"Ichinomiya","lat":35.3,"lon":136.8,"pop":380073},{"name":"Aswān","lat":24.09,"lon":32.9,"pop":379774},{"name":"Brno","lat":49.2,"lon":16.61,"pop":379466},{"name":"Bauru","lat":-22.31,"lon":-49.06,"pop":379297},{"name":"Iaşi","lat":47.17,"lon":27.6,"pop":378954},{"name":"Krugersdorp","lat":-26.09,"lon":27.78,"pop":378821},{"name":"Pānihāti","lat":22.69,"lon":88.37,"pop":378705},{"name":"Shibganj","lat":25,"lon":89.32,"pop":378701},{"name":"Iquitos","lat":-3.75,"lon":-73.25,"pop":377609},{"name":"Toyohashi","lat":34.77,"lon":137.38,"pop":377453},{"name":"Hechuan","lat":29.99,"lon":106.26,"pop":377213},{"name":"Utrecht","lat":52.09,"lon":5.12,"pop":376435},{"name":"Rajamahendravaram","lat":17.01,"lon":81.78,"pop":376333},{"name":"Dhule","lat":20.9,"lon":74.78,"pop":375559},{"name":"Minato","lat":34.22,"lon":135.15,"pop":375339},{"name":"Puchong","lat":3,"lon":101.62,"pop":375181},{"name":"Ondo","lat":7.09,"lon":4.84,"pop":375000},{"name":"Rohtak","lat":28.89,"lon":76.59,"pop":374292},{"name":"Rustenburg","lat":-25.67,"lon":27.24,"pop":373695},{"name":"Bakersfield","lat":35.37,"lon":-119.02,"pop":373640},{"name":"Bengkulu","lat":-3.8,"lon":102.27,"pop":373591},{"name":"Yogyakarta","lat":-7.8,"lon":110.36,"pop":373589},{"name":"Xuanhua","lat":40.61,"lon":115.06,"pop":373422},{"name":"Emalahleni","lat":-25.87,"lon":29.23,"pop":373403},{"name":"Bafoussam","lat":5.48,"lon":10.42,"pop":373268},{"name":"Palu","lat":-0.91,"lon":119.87,"pop":373218},{"name":"Thủ Dầu Một","lat":10.98,"lon":106.65,"pop":373105},{"name":"Takasaki","lat":36.33,"lon":139.02,"pop":372973},{"name":"Seremban","lat":2.73,"lon":101.94,"pop":372917},{"name":"Miguel Hidalgo","lat":19.43,"lon":-99.2,"pop":372889},{"name":"Nagano","lat":36.65,"lon":138.18,"pop":372760},{"name":"Tawau","lat":4.24,"lon":117.89,"pop":372615},{"name":"Cardiff","lat":51.48,"lon":-3.18,"pop":372089},{"name":"Đống Đa","lat":21.02,"lon":105.83,"pop":371606},{"name":"Chitungwiza","lat":-18.01,"lon":31.08,"pop":371246},{"name":"Abadan","lat":30.34,"lon":48.3,"pop":370180},{"name":"Ingombota","lat":-8.82,"lon":13.23,"pop":370000},{"name":"Fenghuang","lat":27.94,"lon":109.6,"pop":370000},{"name":"Umuahia","lat":5.52,"lon":7.49,"pop":370000},{"name":"Puerto La Cruz","lat":10.21,"lon":-64.63,"pop":370000},{"name":"Vinnytsya","lat":49.23,"lon":28.47,"pop":369839},{"name":"Uşak","lat":38.67,"lon":29.41,"pop":369433},{"name":"Bharatpur","lat":27.68,"lon":84.44,"pop":369377},{"name":"Itaquaquecetuba","lat":-23.49,"lon":-46.35,"pop":369275},{"name":"Natore","lat":24.41,"lon":88.99,"pop":369138},{"name":"6th of October City","lat":29.82,"lon":31.05,"pop":368650},{"name":"Leicester","lat":52.64,"lon":-1.13,"pop":368600},{"name":"Desna","lat":50.52,"lon":30.68,"pop":368500},{"name":"Sector 6","lat":44.44,"lon":26.02,"pop":367760},{"name":"Canberra","lat":-35.28,"lon":149.13,"pop":367752},{"name":"Nara-shi","lat":34.69,"lon":135.8,"pop":367353},{"name":"Florence","lat":43.78,"lon":11.25,"pop":367150},{"name":"Ahilyanagar","lat":19.09,"lon":74.74,"pop":367140},{"name":"Kollam","lat":8.88,"lon":76.58,"pop":367107},{"name":"Huanggang","lat":30.45,"lon":114.87,"pop":366769},{"name":"Olinda","lat":-8.01,"lon":-34.86,"pop":366754},{"name":"Bradford","lat":53.79,"lon":-1.75,"pop":366187},{"name":"Bilāspur","lat":22.08,"lon":82.16,"pop":365579},{"name":"Malabon","lat":14.67,"lon":120.94,"pop":365525},{"name":"Cleveland","lat":41.5,"lon":-81.7,"pop":365379},{"name":"Iseyin","lat":7.97,"lon":3.6,"pop":365300},{"name":"Etobicoke","lat":43.64,"lon":-79.57,"pop":365000},{"name":"Yenagoa","lat":4.93,"lon":6.27,"pop":365000},{"name":"Gboko","lat":7.32,"lon":9,"pop":365000},{"name":"Pyeongtaek","lat":36.99,"lon":127.09,"pop":364694},{"name":"Petare","lat":10.48,"lon":-66.81,"pop":364684},{"name":"Bến Cát","lat":11.15,"lon":106.6,"pop":364578},{"name":"Anqiu","lat":36.43,"lon":119.19,"pop":364208},{"name":"Alanya","lat":36.54,"lon":32,"pop":364180},{"name":"Larkana","lat":27.56,"lon":68.21,"pop":364033},{"name":"Al Qadarif","lat":14.03,"lon":35.38,"pop":363945},{"name":"Cibinong","lat":-6.48,"lon":106.85,"pop":363424},{"name":"Nawabshah","lat":26.24,"lon":68.4,"pop":363138},{"name":"New Orleans","lat":29.95,"lon":-90.08,"pop":362701},{"name":"Keelung","lat":25.13,"lon":121.74,"pop":362487},{"name":"Malmö","lat":55.61,"lon":13,"pop":362133},{"name":"Jizhou","lat":37.55,"lon":115.57,"pop":362013},{"name":"Manukau City","lat":-36.99,"lon":174.88,"pop":362000},{"name":"Blumenau","lat":-26.92,"lon":-49.07,"pop":361855},{"name":"Maradi","lat":13.5,"lon":7.1,"pop":361702},{"name":"Ataşehir","lat":40.98,"lon":29.12,"pop":361615},{"name":"Hrodna","lat":53.68,"lon":23.83,"pop":361115},{"name":"Wuppertal","lat":51.26,"lon":7.15,"pop":360797},{"name":"Sukabumi","lat":-6.92,"lon":106.93,"pop":360644},{"name":"Ulan-Ude","lat":51.83,"lon":107.6,"pop":360278},{"name":"Huocheng","lat":44.05,"lon":80.87,"pop":360000},{"name":"Ijebu Ode","lat":6.82,"lon":3.92,"pop":360000},{"name":"Maseru","lat":-29.32,"lon":27.48,"pop":359753},{"name":"Bhilwara","lat":25.35,"lon":74.64,"pop":359483},{"name":"Aurora","lat":39.73,"lon":-104.83,"pop":359407},{"name":"Sumqayıt","lat":40.59,"lon":49.67,"pop":358675},{"name":"Franca","lat":-20.54,"lon":-47.4,"pop":358539},{"name":"Vitebsk","lat":55.19,"lon":30.2,"pop":358395},{"name":"Taraz","lat":42.9,"lon":71.37,"pop":358153},{"name":"Yangsan","lat":35.34,"lon":129.03,"pop":358074},{"name":"Lobito","lat":-12.36,"lon":13.54,"pop":357950},{"name":"Dniprovskyi","lat":50.45,"lon":30.6,"pop":357900},{"name":"San Jose del Monte","lat":14.81,"lon":121.05,"pop":357828},{"name":"Gwangmyeong","lat":37.48,"lon":126.87,"pop":357545},{"name":"Zanjan","lat":36.68,"lon":48.5,"pop":357471},{"name":"Neiva","lat":2.93,"lon":-75.28,"pop":357392},{"name":"Iwaki","lat":37.05,"lon":140.88,"pop":357309},{"name":"Vladimir","lat":56.14,"lon":40.4,"pop":357024},{"name":"Tete","lat":-16.16,"lon":33.59,"pop":357000},{"name":"Bacoor","lat":14.46,"lon":120.94,"pop":356974},{"name":"Wakayama","lat":34.23,"lon":135.17,"pop":356729},{"name":"Brahmapur","lat":19.31,"lon":84.79,"pop":356598},{"name":"Fengshan","lat":22.63,"lon":120.36,"pop":356463},{"name":"Caucaia","lat":-3.74,"lon":-38.65,"pop":355679},{"name":"Misratah","lat":32.38,"lon":15.09,"pop":355657},{"name":"Cuíto","lat":-12.38,"lon":16.93,"pop":355423},{"name":"Benito Juarez","lat":19.4,"lon":-99.16,"pop":355017},{"name":"Kyzylorda","lat":44.85,"lon":65.51,"pop":354800},{"name":"Kawagoe","lat":35.91,"lon":139.49,"pop":354571},{"name":"Takatsuki","lat":34.85,"lon":135.62,"pop":354468},{"name":"Muzaffarpur","lat":26.12,"lon":85.39,"pop":354462},{"name":"Tapachula","lat":14.91,"lon":-92.26,"pop":353706},{"name":"Lhoka","lat":29.24,"lon":91.77,"pop":353700},{"name":"Villahermosa","lat":17.99,"lon":-92.94,"pop":353577},{"name":"Cariacica","lat":-20.26,"lon":-40.42,"pop":353491},{"name":"Setapak","lat":3.21,"lon":101.73,"pop":353268},{"name":"Mahilyow","lat":53.91,"lon":30.34,"pop":353110},{"name":"Bandar Abbas","lat":27.19,"lon":56.28,"pop":352173},{"name":"Yunusobod","lat":41.37,"lon":69.28,"pop":352000},{"name":"Ras Al Khaimah","lat":25.79,"lon":55.94,"pop":351943},{"name":"Cabimas","lat":10.4,"lon":-71.45,"pop":351736},{"name":"Honolulu","lat":21.31,"lon":-157.86,"pop":350964},{"name":"Anaheim","lat":33.84,"lon":-117.91,"pop":350742},{"name":"Tarsus","lat":36.92,"lon":34.89,"pop":350732},{"name":"Pengze","lat":29.9,"lon":116.55,"pop":350000},{"name":"Bahir Dar","lat":11.59,"lon":37.39,"pop":350000},{"name":"Punāsa","lat":22.24,"lon":76.39,"pop":350000},{"name":"Al Maḩmūdīyah","lat":33.06,"lon":44.37,"pop":350000},{"name":"Diepsloot","lat":-25.93,"lon":28.01,"pop":350000},{"name":"Xilinhot","lat":43.94,"lon":116.07,"pop":349953},{"name":"Praia Grande","lat":-24.01,"lon":-46.4,"pop":349935},{"name":"Quelimane","lat":-17.88,"lon":36.89,"pop":349842},{"name":"Arkhangel’sk","lat":64.55,"lon":40.55,"pop":349742},{"name":"Muzaffarnagar","lat":29.47,"lon":77.7,"pop":349706},{"name":"Hulunbuir","lat":49.21,"lon":119.76,"pop":349400},{"name":"Shinjuku","lat":35.69,"lon":139.71,"pop":349385},{"name":"Sikasso","lat":11.32,"lon":-5.67,"pop":349324},{"name":"Sanandaj","lat":35.31,"lon":47,"pop":349176},{"name":"Chita","lat":52.04,"lon":113.49,"pop":349005},{"name":"San Pedro","lat":14.36,"lon":121.05,"pop":348968},{"name":"Campina Grande","lat":-7.23,"lon":-35.88,"pop":348936},{"name":"Alicante","lat":38.35,"lon":-0.48,"pop":348901},{"name":"Bimbo","lat":4.26,"lon":18.42,"pop":348802},{"name":"Kalemyo","lat":23.19,"lon":94.06,"pop":348573},{"name":"Belfast","lat":54.6,"lon":-5.93,"pop":348005},{"name":"Long Bien","lat":21.03,"lon":105.9,"pop":347829},{"name":"Camagüey","lat":21.38,"lon":-77.92,"pop":347562},{"name":"Daye","lat":30.08,"lon":114.95,"pop":347406},{"name":"Bilbao","lat":43.26,"lon":-2.93,"pop":347342},{"name":"Ambon","lat":-3.7,"lon":128.18,"pop":347288},{"name":"Chifeng","lat":42.27,"lon":118.96,"pop":346654},{"name":"Central Coast","lat":-33.43,"lon":151.37,"pop":346596},{"name":"Sunshine Coast","lat":-26.66,"lon":153.08,"pop":346522},{"name":"Corrientes","lat":-27.47,"lon":-58.83,"pop":346334},{"name":"Hŭngnam","lat":39.84,"lon":127.63,"pop":346082},{"name":"Avadi","lat":13.11,"lon":80.11,"pop":345996},{"name":"Astana","lat":51.18,"lon":71.45,"pop":345604},{"name":"Yunlong","lat":34.25,"lon":117.25,"pop":345393},{"name":"Koshigaya","lat":35.89,"lon":139.79,"pop":345353},{"name":"Coventry","lat":52.41,"lon":-1.51,"pop":345324},{"name":"Belgorod","lat":50.6,"lon":36.58,"pop":345289},{"name":"Kendari","lat":-3.98,"lon":122.52,"pop":345107},{"name":"Toamasina","lat":-18.15,"lon":49.4,"pop":345107},{"name":"Logan City","lat":-27.64,"lon":153.11,"pop":345098},{"name":"Ōtsu","lat":35,"lon":135.87,"pop":345070},{"name":"Kosti","lat":13.16,"lon":32.66,"pop":345068},{"name":"Qitaihe","lat":45.77,"lon":131,"pop":345033},{"name":"Doha","lat":25.29,"lon":51.53,"pop":344939},{"name":"Kadapa","lat":14.48,"lon":78.82,"pop":344893},{"name":"Nakano","lat":35.7,"lon":139.67,"pop":344880},{"name":"Turmero","lat":10.23,"lon":-67.47,"pop":344700},{"name":"Brest","lat":52.11,"lon":23.72,"pop":344470},{"name":"Tokorozawa","lat":35.8,"lon":139.47,"pop":344194},{"name":"Cabanatuan City","lat":15.49,"lon":120.97,"pop":343672},{"name":"Pizhou","lat":34.31,"lon":117.95,"pop":343421},{"name":"Darnytsya","lat":50.42,"lon":30.7,"pop":343384},{"name":"Dire Dawa","lat":9.59,"lon":41.87,"pop":343000},{"name":"Annaba","lat":36.9,"lon":7.77,"pop":342703},{"name":"Nice","lat":43.7,"lon":7.27,"pop":342669},{"name":"Iligan","lat":8.23,"lon":124.24,"pop":342618},{"name":"Soledad","lat":10.92,"lon":-74.76,"pop":342556},{"name":"Temara","lat":33.93,"lon":-6.91,"pop":342345},{"name":"Shiqi","lat":22.52,"lon":113.39,"pop":342306},{"name":"Paulista","lat":-7.94,"lon":-34.87,"pop":342167},{"name":"Obalende","lat":6.45,"lon":3.42,"pop":342000},{"name":"Cirebon","lat":-6.71,"lon":108.56,"pop":341980},{"name":"Kukatpally","lat":17.48,"lon":78.41,"pop":341709},{"name":"Laixi","lat":36.86,"lon":120.53,"pop":341470},{"name":"Jhang Sadr","lat":31.27,"lon":72.32,"pop":341210},{"name":"Dihok","lat":36.87,"lon":42.99,"pop":340900},{"name":"Kaluga","lat":54.53,"lon":36.27,"pop":340851},{"name":"Bắc Từ Liêm","lat":21.07,"lon":105.75,"pop":340605},{"name":"Svyatoshyn","lat":50.46,"lon":30.35,"pop":340399},{"name":"Celaya","lat":20.52,"lon":-100.82,"pop":340387},{"name":"Serekunda","lat":13.44,"lon":-16.68,"pop":340000},{"name":"Kāfrul","lat":23.79,"lon":90.37,"pop":339734},{"name":"Ḩadā’iq al Qubbah","lat":30.09,"lon":31.28,"pop":339612},{"name":"Makiivka","lat":48.05,"lon":37.93,"pop":338968},{"name":"West Raleigh","lat":35.79,"lon":-78.66,"pop":338759},{"name":"Cuernavaca","lat":18.93,"lon":-99.23,"pop":338650},{"name":"Markham","lat":43.87,"lon":-79.27,"pop":338503},{"name":"Kaesŏng","lat":37.97,"lon":126.55,"pop":338155},{"name":"Uberaba","lat":-19.75,"lon":-47.93,"pop":337836},{"name":"Tungi","lat":23.89,"lon":90.4,"pop":337579},{"name":"Krasnogvargeisky","lat":59.97,"lon":30.48,"pop":337091},{"name":"Randburg","lat":-26.09,"lon":28,"pop":337053},{"name":"Safi","lat":32.3,"lon":-9.24,"pop":336883},{"name":"Simferopol","lat":44.96,"lon":34.11,"pop":336460},{"name":"Lublin","lat":51.25,"lon":22.57,"pop":336339},{"name":"Ganja","lat":40.68,"lon":46.36,"pop":335600},{"name":"San José","lat":9.93,"lon":-84.08,"pop":335007},{"name":"Orlando","lat":28.54,"lon":-81.38,"pop":334854},{"name":"Viña del Mar","lat":-33.02,"lon":-71.55,"pop":334248},{"name":"Tieling","lat":42.29,"lon":123.84,"pop":333907},{"name":"Qazvin","lat":36.27,"lon":50,"pop":333635},{"name":"Asahikawa","lat":43.77,"lon":142.36,"pop":333530},{"name":"Kāmārhāti","lat":22.67,"lon":88.37,"pop":332965},{"name":"Tepic","lat":21.51,"lon":-104.89,"pop":332863},{"name":"Wŏnju","lat":37.35,"lon":127.95,"pop":332849},{"name":"Wad Medani","lat":14.4,"lon":33.52,"pop":332714},{"name":"Quận Mười Một","lat":10.76,"lon":106.64,"pop":332536},{"name":"Nukus","lat":42.46,"lon":59.61,"pop":332500},{"name":"Maebashi","lat":36.4,"lon":139.08,"pop":332149},{"name":"Kita","lat":35.75,"lon":139.73,"pop":332140},{"name":"Ciudad Victoria","lat":23.74,"lon":-99.14,"pop":332100},{"name":"Soledad de Graciano Sánchez","lat":22.19,"lon":-100.94,"pop":332072},{"name":"Kochi","lat":33.55,"lon":133.53,"pop":332059},{"name":"Bielefeld","lat":52.03,"lon":8.53,"pop":331906},{"name":"Dumai","lat":1.67,"lon":101.44,"pop":331832},{"name":"Blida","lat":36.47,"lon":2.83,"pop":331779},{"name":"Kwai Chung","lat":22.37,"lon":114.14,"pop":331600},{"name":"Mandaue City","lat":10.32,"lon":123.92,"pop":331320},{"name":"Khorramshahr","lat":30.44,"lon":48.18,"pop":330606},{"name":"Bonn","lat":50.73,"lon":7.1,"pop":330579},{"name":"Mathura","lat":27.5,"lon":77.67,"pop":330511},{"name":"Hechi","lat":24.69,"lon":108.08,"pop":330131},{"name":"Bydgoszcz","lat":53.12,"lon":18.01,"pop":330038},{"name":"Smolensk","lat":54.78,"lon":32.05,"pop":330025},{"name":"Oral","lat":51.25,"lon":51.43,"pop":330000},{"name":"São Vicente","lat":-23.96,"lon":-46.39,"pop":329911},{"name":"Khorramabad","lat":33.49,"lon":48.36,"pop":329825},{"name":"Ribeirão das Neves","lat":-19.77,"lon":-44.09,"pop":329794},{"name":"Soyapango","lat":13.71,"lon":-89.14,"pop":329708},